date,time,location,lat,lng,subject_race,type,arrest_made,citation_issued,outcome,contraband_found,search_conducted,reason_for_stop
2013-09-01,00:00:45,ALUM ROCK AV AND N KING RD,37.3529345,-121.8555622,white,vehicular,FALSE,FALSE,NA,NA,FALSE,Vehicle Code Violation
2013-09-01,00:08:32,NA,NA,NA,black,vehicular,FALSE,FALSE,NA,NA,FALSE,Vehicle Code Violation
2013-09-01,00:08:37,TULLY RD AND LUCRETIA AV,37.3128518,-121.8402649,hispanic,vehicular,FALSE,TRUE,citation,NA,FALSE,Vehicle Code Violation
2013-09-01,00:08:54,BRANHAM LN AND ALMADEN EX,37.2630555,-121.8765914,hispanic,vehicular,FALSE,FALSE,NA,NA,FALSE,Vehicle Code Violation
2013-09-01,00:10:43,E SANTA CLARA ST AND S 15TH ST,37.3429844,-121.8762493,hispanic,vehicular,FALSE,FALSE,NA,NA,FALSE,Vehicle Code Violation
2013-09-01,00:22:16,NASHVILLE DR AND JIM DR,37.3812189,-121.8414278,hispanic,NA,NA,NA,NA,TRUE,TRUE,Vehicle Code Violation
2013-09-01,00:29:31,MONTEREY RD AND PHELAN AV,37.3112879,-121.8689544,hispanic,vehicular,FALSE,FALSE,NA,NA,FALSE,Vehicle Code Violation
2013-09-01,00:34:03,NA,NA,NA,asian/pacific islander,vehicular,FALSE,FALSE,NA,NA,FALSE,Vehicle Code Violation
2013-09-01,00:37:01,N BASCOM AV AND W HEDDING ST,37.3319383,-121.9346113,black,vehicular,FALSE,FALSE,NA,NA,FALSE,Vehicle Code Violation
2013-09-01,00:38:30,S 1ST ST AND OAK ST,37.3227126,-121.8803153,black,vehicular,FALSE,TRUE,citation,NA,FALSE,Vehicle Code Violation
2013-09-01,00:39:21,NA,NA,NA,other,vehicular,FALSE,FALSE,NA,NA,FALSE,Vehicle Code Violation
2013-09-01,00:57:47,STORY RD AND S JACKSON AV,37.3469471,-121.832597,hispanic,vehicular,FALSE,FALSE,NA,NA,FALSE,Vehicle Code Violation
2013-09-01,01:03:44,NA,NA,NA,asian/pacific islander,vehicular,FALSE,FALSE,NA,NA,FALSE,Vehicle Code Violation
2013-09-01,01:05:19,1440 N 1ST ST,37.3625269,-121.9093975,other,pedestrian,TRUE,FALSE,arrest,NA,NA,NA
2013-09-01,01:06:36,NA,NA,NA,hispanic,vehicular,FALSE,FALSE,NA,FALSE,TRUE,Vehicle Code Violation
2013-09-01,01:33:03,CURTNER AV AND UNION AV,37.2725453,-121.9329355,hispanic,vehicular,FALSE,TRUE,citation,NA,FALSE,Vehicle Code Violation
2013-09-01,02:19:38,N 2ND ST AND E SANTA CLARA ST,37.3366932,-121.8895012,white,vehicular,FALSE,FALSE,NA,NA,FALSE,Vehicle Code Violation
2013-09-01,02:24:53,NA,NA,NA,hispanic,vehicular,FALSE,FALSE,NA,NA,FALSE,Vehicle Code Violation
2013-09-01,02:41:10,STORY RD AND MCGINNESS AV,37.35268,-121.8244083,hispanic,vehicular,FALSE,TRUE,citation,FALSE,TRUE,Vehicle Code Violation
2013-09-01,02:53:17,PIEDMONT RD AND SIERRA RD,37.3997923,-121.8469492,hispanic,vehicular,FALSE,FALSE,NA,NA,FALSE,Vehicle Code Violation
2013-09-01,03:38:54,E SAN ANTONIO ST AND PRESERVATION DR,37.3539861,-121.8440188,hispanic,vehicular,FALSE,FALSE,NA,FALSE,TRUE,Vehicle Code Violation
2013-09-01,03:52:09,STORY RD AND GALAHAD AV,37.3493964,-121.828977,hispanic,vehicular,TRUE,FALSE,arrest,FALSE,TRUE,Vehicle Code Violation
2013-09-01,09:36:15,SENTER RD AND KEYES ST,37.3256773,-121.8656671,hispanic,pedestrian,FALSE,FALSE,NA,FALSE,TRUE,Consensual
2013-09-01,11:25:20,TULLY RD AND LUCRETIA AV,37.3128518,-121.8402649,asian/pacific islander,vehicular,FALSE,FALSE,NA,NA,FALSE,Vehicle Code Violation
2013-09-01,15:01:26,FOOTHILL DR AND CAHALAN AV,37.2372695,-121.8511116,other,pedestrian,FALSE,TRUE,citation,NA,FALSE,Vehicle Code Violation
2013-09-01,15:01:26,FOOTHILL DR AND CAHALAN AV,37.2372695,-121.8511116,white,pedestrian,FALSE,TRUE,citation,NA,FALSE,Vehicle Code Violation
2013-09-01,15:01:26,FOOTHILL DR AND CAHALAN AV,37.2372695,-121.8511116,white,pedestrian,FALSE,TRUE,citation,TRUE,TRUE,Vehicle Code Violation
2013-09-01,15:33:05,N KING RD AND MCKEE RD,37.3581098,-121.8608166,NA,vehicular,FALSE,FALSE,NA,NA,FALSE,NA
2013-09-01,15:48:45,THE ALAMEDA AND W HEDDING ST,37.340797,-121.9230048,hispanic,vehicular,FALSE,TRUE,citation,NA,NA,Vehicle Code Violation
2013-09-01,15:55:11,NA,NA,NA,asian/pacific islander,vehicular,FALSE,TRUE,citation,NA,FALSE,Vehicle Code Violation
2013-09-01,16:12:12,WINFIELD BL AND BLOSSOM HILL RD,37.2503327,-121.8666347,other,pedestrian,FALSE,FALSE,NA,NA,NA,NA
2013-09-01,16:17:20,1707 W SAN CARLOS ST,37.3239911,-121.9218483,hispanic,vehicular,FALSE,FALSE,NA,NA,FALSE,Vehicle Code Violation
2013-09-01,16:30:30,PARK AV AND RACE ST,37.3260144,-121.9115812,other,vehicular,FALSE,TRUE,citation,NA,FALSE,Vehicle Code Violation
2013-09-01,16:44:55,W SAN CARLOS ST AND N BUENA VISTA AV,37.3234002,-121.9189144,hispanic,vehicular,FALSE,TRUE,citation,NA,FALSE,Vehicle Code Violation
2013-09-01,17:00:03,W SAN CARLOS ST AND RAYMOND AV,37.3233477,-121.9284899,black,vehicular,FALSE,TRUE,citation,NA,FALSE,Vehicle Code Violation
2013-09-01,17:15:22,TEST,37.3130976,-121.7938802,other,pedestrian,FALSE,FALSE,NA,NA,NA,NA
2013-09-01,17:26:27,KEYES ST AND S 5TH ST,37.3217081,-121.8740818,hispanic,pedestrian,TRUE,FALSE,arrest,TRUE,TRUE,Vehicle Code Violation
2013-09-01,17:29:40,TISCH WY AND S MONROE ST,37.3175797,-121.9432982,hispanic,vehicular,FALSE,FALSE,NA,NA,FALSE,Vehicle Code Violation
2013-09-01,17:30:36,1705 BERRYESSA RD,37.3738111,-121.8738485,other,pedestrian,TRUE,FALSE,arrest,TRUE,TRUE,Vehicle Code Violation
2013-09-01,18:00:30,S 1ST ST AND MARTHA ST,37.3227126,-121.8803153,hispanic,NA,TRUE,FALSE,arrest,FALSE,TRUE,Vehicle Code Violation
2013-09-01,18:13:26,SANTEE DR AND MCQUESTEN DR,37.3296801,-121.8470467,hispanic,vehicular,FALSE,FALSE,NA,NA,FALSE,Vehicle Code Violation
2013-09-01,18:55:51,S 22ND ST AND E SANTA CLARA ST,37.3461182,-121.869662,hispanic,vehicular,FALSE,TRUE,citation,FALSE,TRUE,Vehicle Code Violation
2013-09-01,19:14:04,SENTER RD AND TULLY RD,37.3080836,-121.8476515,hispanic,vehicular,FALSE,FALSE,NA,FALSE,TRUE,Vehicle Code Violation
2013-09-01,19:15:09,HILLCAP AV AND SNELL AV,37.2783955,-121.8433657,hispanic,NA,TRUE,FALSE,arrest,TRUE,TRUE,Vehicle Code Violation
2013-09-01,19:59:21,STEVENS CREEK BL AND N BASCOM AV,37.3233344,-121.9320226,hispanic,vehicular,FALSE,FALSE,NA,NA,FALSE,Vehicle Code Violation
2013-09-01,20:24:12,HOSTETTER RD AND MORRILL AV,37.4010013,-121.8643476,other,vehicular,FALSE,FALSE,NA,FALSE,TRUE,Vehicle Code Violation
2013-09-01,20:25:07,CAMDEN AV AND KOOSER RD,37.2401483,-121.9037661,hispanic,pedestrian,FALSE,FALSE,NA,TRUE,TRUE,Vehicle Code Violation
2013-09-01,21:00:08,N BASCOM AV AND STEVENS CREEK BL,37.3233344,-121.9320226,black,vehicular,FALSE,FALSE,NA,NA,FALSE,Vehicle Code Violation
2013-09-01,21:05:33,COLEMAN AV AND AIRPORT BL,37.3507016,-121.9208241,other,vehicular,FALSE,FALSE,NA,NA,FALSE,Vehicle Code Violation
2013-09-01,21:26:29,KOOSER RD AND BLOSSOM HILL RD,37.2461178,-121.8866793,white,pedestrian,FALSE,FALSE,NA,TRUE,TRUE,Vehicle Code Violation
2013-09-01,22:13:22,KOOSER RD AND STANWOOD DR,37.2462613,-121.8900528,black,pedestrian,TRUE,FALSE,arrest,FALSE,TRUE,Vehicle Code Violation
2013-09-01,22:20:48,S BASCOM AV AND SCOTT ST,37.3198524,-121.9317986,asian/pacific islander,vehicular,FALSE,FALSE,NA,NA,FALSE,Vehicle Code Violation
2013-09-01,22:32:13,PACKING PL AND CANNIKIN DR,37.3534514,-121.8418992,black,pedestrian,TRUE,FALSE,arrest,TRUE,TRUE,Vehicle Code Violation
2013-09-01,22:35:33,ALMADEN EX AND CHERRY AV,37.2591239,-121.8761193,white,vehicular,FALSE,FALSE,NA,NA,FALSE,Vehicle Code Violation
2013-09-01,22:36:41,STEINBECK DR AND ALLEN AV,37.2471124,-121.8555682,white,vehicular,FALSE,TRUE,citation,NA,FALSE,Vehicle Code Violation
2013-09-01,22:39:40,E CAPITOL EX AND CUNNINGHAM AV,37.3377818,-121.8175415,hispanic,vehicular,FALSE,TRUE,citation,FALSE,TRUE,Vehicle Code Violation
2013-09-01,22:53:45,MENKER AV AND MOORPARK AV,37.3162698,-121.9216627,hispanic,vehicular,FALSE,FALSE,NA,FALSE,TRUE,Vehicle Code Violation
2013-09-01,22:54:48,E SANTA CLARA ST AND N 5TH ST,37.3382088,-121.8863279,black,vehicular,FALSE,FALSE,NA,FALSE,TRUE,Vehicle Code Violation
2013-09-01,22:54:53,WINFIELD BL AND BLOSSOM HILL RD,37.2503327,-121.8666347,hispanic,vehicular,FALSE,FALSE,NA,NA,FALSE,Vehicle Code Violation
2013-09-01,23:10:16,CAP NORTH OF TULLY,37.390783,-121.917062,hispanic,vehicular,FALSE,FALSE,NA,NA,FALSE,Vehicle Code Violation
2013-09-01,23:11:01,HOSTETTER RD AND N CAPITOL AV,37.3968127,-121.8717374,hispanic,vehicular,FALSE,TRUE,citation,NA,FALSE,Vehicle Code Violation
2013-09-01,23:12:38,KEYES ST AND S 2ND ST,37.3202901,-121.8773066,hispanic,vehicular,FALSE,FALSE,NA,NA,FALSE,Vehicle Code Violation
2013-09-01,23:25:19,NA,NA,NA,hispanic,vehicular,TRUE,FALSE,arrest,TRUE,TRUE,Vehicle Code Violation
2013-09-01,23:25:19,NA,NA,NA,hispanic,vehicular,TRUE,FALSE,arrest,FALSE,TRUE,Vehicle Code Violation
2013-09-01,23:53:30,TREEWOOD LN AND CAPEWOOD LN,37.4141533,-121.8689141,hispanic,vehicular,FALSE,FALSE,NA,NA,FALSE,Vehicle Code Violation
2013-09-01,23:59:17,NA,NA,NA,other,vehicular,FALSE,FALSE,NA,NA,FALSE,Vehicle Code Violation
2013-09-02,00:27:15,ALMADEN RD AND MESA DR,37.2492882,-121.8754188,hispanic,pedestrian,FALSE,TRUE,citation,TRUE,TRUE,Vehicle Code Violation
2013-09-02,00:27:15,ALMADEN RD AND MESA DR,37.2492882,-121.8754188,NA,pedestrian,FALSE,TRUE,citation,NA,FALSE,NA
2013-09-02,00:30:38,TULLY RD AND GALVESTON AV,37.3115067,-121.8423563,hispanic,vehicular,FALSE,FALSE,NA,NA,FALSE,Vehicle Code Violation
2013-09-02,00:53:47,BLOSSOM HILL RD AND ALMADEN EX,37.2509041,-121.8754524,black,pedestrian,FALSE,FALSE,NA,NA,FALSE,Vehicle Code Violation
2013-09-02,01:09:03,MCCREERY AV AND ALUM ROCK AV,37.3546443,-121.8518431,hispanic,vehicular,FALSE,FALSE,NA,FALSE,TRUE,Vehicle Code Violation
2013-09-02,02:02:18,ALMADEN EX AND REDMOND AV,37.2293628,-121.8704786,other,pedestrian,FALSE,FALSE,NA,NA,FALSE,Muni Code Violation
2013-09-02,02:56:10,WINFIELD BL AND BLOSSOM HILL RD,37.2503327,-121.8666347,hispanic,vehicular,FALSE,FALSE,NA,TRUE,TRUE,Vehicle Code Violation
2013-09-02,04:13:41,BLOSSOM HILL RD AND PLAYA DEL REY,37.250388,-121.8531644,hispanic,vehicular,FALSE,TRUE,citation,NA,FALSE,Vehicle Code Violation
2013-09-02,06:11:17,S 6TH ST AND E SAN SALVADOR ST,37.3325661,-121.8806596,black,pedestrian,FALSE,FALSE,NA,FALSE,TRUE,Vehicle Code Violation
2013-09-02,06:11:17,S 6TH ST AND E SAN SALVADOR ST,37.3325661,-121.8806596,NA,pedestrian,FALSE,FALSE,NA,NA,FALSE,NA
2013-09-02,07:01:17,TECHNOLOGY DR AND SKYPORT DR,37.3652228,-121.916993,hispanic,vehicular,FALSE,TRUE,citation,NA,FALSE,Vehicle Code Violation
2013-09-02,08:20:43,SKYPORT DR AND AIRPORT BL,37.3620725,-121.9190371,other,NA,FALSE,TRUE,citation,NA,FALSE,Vehicle Code Violation
2013-09-02,08:51:12,SANTA TERESA BL AND THORNWOOD DR,37.2527968,-121.858998,other,vehicular,FALSE,FALSE,NA,NA,NA,NA
2013-09-02,08:51:12,SANTA TERESA BL AND THORNWOOD DR,37.2527968,-121.858998,NA,vehicular,FALSE,FALSE,NA,NA,FALSE,NA
2013-09-02,10:38:26,CRUCERO DR AND DUBERT LN,37.3295814,-121.8435059,hispanic,vehicular,FALSE,FALSE,NA,FALSE,TRUE,Consensual
2013-09-02,10:38:26,CRUCERO DR AND DUBERT LN,37.3295814,-121.8435059,other,vehicular,FALSE,FALSE,NA,FALSE,TRUE,Consensual
2013-09-02,15:56:39,MERIDIAN AV AND BLOSSOM HILL RD,37.2431887,-121.8895305,white,vehicular,FALSE,FALSE,NA,NA,FALSE,Vehicle Code Violation
2013-09-02,16:04:13,MERIDIAN AV AND REDMOND AV,37.2282456,-121.8844108,white,vehicular,FALSE,TRUE,citation,NA,FALSE,Vehicle Code Violation
2013-09-02,17:23:14,SCOTT ST AND LEIGH AV,37.3196308,-121.92382,black,NA,TRUE,FALSE,arrest,FALSE,TRUE,Vehicle Code Violation
2013-09-02,17:39:24,N 1ST ST AND SKYPORT DR,37.3669389,-121.9136731,white,pedestrian,TRUE,FALSE,arrest,TRUE,TRUE,BOL/APB/Watch Bulletin
2013-09-02,18:12:55,AMBLER WY AND HELLYER AV,37.2842968,-121.8171932,asian/pacific islander,vehicular,FALSE,FALSE,NA,NA,FALSE,Vehicle Code Violation
2013-09-02,18:50:54,NA,NA,NA,white,pedestrian,FALSE,TRUE,citation,FALSE,TRUE,Vehicle Code Violation
2013-09-02,19:06:10,W SAN CARLOS ST AND LINCOLN AV,37.3235668,-121.9086652,hispanic,vehicular,FALSE,TRUE,citation,NA,FALSE,Vehicle Code Violation
2013-09-02,22:32:24,S KING RD AND FLANIGAN DR,37.3193115,-121.8229783,white,vehicular,FALSE,FALSE,NA,FALSE,TRUE,Vehicle Code Violation
2013-09-02,22:59:56,DUPONT ST AND W SAN CARLOS ST,37.3238578,-121.9042792,hispanic,vehicular,FALSE,FALSE,NA,NA,FALSE,Vehicle Code Violation
2013-09-02,23:02:39,VIA MONTE DR AND TUCSON DR,37.2462169,-121.8770732,white,pedestrian,TRUE,FALSE,arrest,FALSE,TRUE,Muni Code Violation
2013-09-02,23:41:09,PETTIGREW DR AND PLUMSTEAD WY,37.3178719,-121.8047938,black,pedestrian,FALSE,FALSE,NA,FALSE,TRUE,Consensual
2013-09-02,23:42:42,W SAN CARLOS ST AND MERIDIAN AV,37.3235635,-121.9137695,hispanic,vehicular,FALSE,FALSE,NA,NA,FALSE,Vehicle Code Violation
2013-09-03,03:54:44,OCALA AV AND LEEWARD DR,37.3399276,-121.8215059,asian/pacific islander,pedestrian,TRUE,FALSE,arrest,TRUE,TRUE,Vehicle Code Violation
2013-09-03,03:54:44,OCALA AV AND LEEWARD DR,37.3399276,-121.8215059,other,pedestrian,TRUE,FALSE,arrest,TRUE,TRUE,Vehicle Code Violation
2013-09-03,06:49:21,SKYPORT DR AND TECHNOLOGY DR,37.3652228,-121.916993,other,NA,FALSE,TRUE,citation,NA,FALSE,Vehicle Code Violation
2013-09-03,06:49:21,SKYPORT DR AND TECHNOLOGY DR,37.3652228,-121.916993,white,NA,FALSE,TRUE,citation,NA,FALSE,Vehicle Code Violation
2013-09-03,07:24:25,ALUM ROCK AV AND ALEXANDER AV,37.3611557,-121.8380961,hispanic,vehicular,FALSE,FALSE,NA,NA,FALSE,Vehicle Code Violation
2013-09-03,07:35:32,BLOSSOM HILL RD AND GALLUP DR,37.249988,-121.878953,hispanic,vehicular,FALSE,FALSE,NA,NA,FALSE,Vehicle Code Violation
2013-09-03,08:07:42,CURTNER AV AND BOOKSIN AV,37.2839614,-121.9041632,white,vehicular,FALSE,TRUE,citation,NA,FALSE,Vehicle Code Violation
2013-09-03,08:11:00,BLOSSOM HILL RD AND CLOVERCREST DR,37.2495003,-121.8804225,hispanic,vehicular,FALSE,FALSE,NA,NA,FALSE,Vehicle Code Violation
2013-09-03,08:20:16,S BASCOM AV AND RENOVA DR,37.3146246,-121.931748,white,vehicular,FALSE,TRUE,citation,NA,FALSE,Vehicle Code Violation
2013-09-03,08:40:31,YERBA BUENA RD AND SILVER CREEK VALLEY RD,37.2960774,-121.7850024,asian/pacific islander,NA,FALSE,TRUE,citation,NA,FALSE,Vehicle Code Violation
2013-09-03,08:40:31,YERBA BUENA RD AND SILVER CREEK VALLEY RD,37.2960774,-121.7850024,hispanic,NA,FALSE,TRUE,citation,NA,FALSE,Vehicle Code Violation
2013-09-03,08:40:31,YERBA BUENA RD AND SILVER CREEK VALLEY RD,37.2960774,-121.7850024,white,NA,FALSE,TRUE,citation,NA,FALSE,Vehicle Code Violation
2013-09-03,08:43:14,NA,NA,NA,asian/pacific islander,NA,FALSE,TRUE,citation,NA,FALSE,Vehicle Code Violation
2013-09-03,08:43:14,NA,NA,NA,hispanic,NA,FALSE,TRUE,citation,NA,FALSE,Vehicle Code Violation
2013-09-03,08:43:14,NA,NA,NA,white,NA,FALSE,TRUE,citation,NA,FALSE,Vehicle Code Violation
2013-09-03,08:47:49,MOORPARK AV AND LEIGH AV,37.316418,-121.9237794,hispanic,vehicular,FALSE,TRUE,citation,FALSE,TRUE,Vehicle Code Violation
2013-09-03,08:48:55,N 33RD ST AND ALUM ROCK AV,37.3511907,-121.8590964,hispanic,vehicular,FALSE,TRUE,citation,NA,FALSE,Vehicle Code Violation
2013-09-03,08:53:16,MCKEE RD AND ANN DARLING DR,37.3571455,-121.8621202,hispanic,vehicular,FALSE,FALSE,NA,NA,FALSE,Vehicle Code Violation
2013-09-03,08:55:55,BLOSSOM HILL RD AND POUGHKEEPSIE RD,37.2519402,-121.8077176,asian/pacific islander,NA,FALSE,TRUE,citation,NA,FALSE,Vehicle Code Violation
2013-09-03,08:55:55,BLOSSOM HILL RD AND POUGHKEEPSIE RD,37.2519402,-121.8077176,other,NA,FALSE,TRUE,citation,NA,NA,NA
2013-09-03,08:55:55,BLOSSOM HILL RD AND POUGHKEEPSIE RD,37.2519402,-121.8077176,other,NA,FALSE,TRUE,citation,NA,NA,NA
2013-09-03,08:55:55,BLOSSOM HILL RD AND POUGHKEEPSIE RD,37.2519402,-121.8077176,other,NA,FALSE,TRUE,citation,NA,NA,NA
2013-09-03,08:55:55,BLOSSOM HILL RD AND POUGHKEEPSIE RD,37.2519402,-121.8077176,other,NA,FALSE,TRUE,citation,NA,FALSE,Vehicle Code Violation
2013-09-03,08:55:55,BLOSSOM HILL RD AND POUGHKEEPSIE RD,37.2519402,-121.8077176,other,NA,FALSE,TRUE,citation,TRUE,TRUE,NA
2013-09-03,08:55:55,BLOSSOM HILL RD AND POUGHKEEPSIE RD,37.2519402,-121.8077176,other,NA,FALSE,TRUE,citation,NA,NA,NA
2013-09-03,09:05:49,YERBA BUENA RD AND PICARDY PLACE CT,37.2980834,-121.8053081,asian/pacific islander,NA,FALSE,FALSE,NA,NA,FALSE,Vehicle Code Violation
2013-09-03,09:06:11,N 4TH ST AND E GISH RD,37.3633763,-121.9065819,black,vehicular,FALSE,FALSE,NA,FALSE,TRUE,Vehicle Code Violation
2013-09-03,09:06:11,N 4TH ST AND E GISH RD,37.3633763,-121.9065819,hispanic,vehicular,FALSE,FALSE,NA,NA,FALSE,Vehicle Code Violation
2013-09-03,09:06:11,N 4TH ST AND E GISH RD,37.3633763,-121.9065819,hispanic,vehicular,FALSE,FALSE,NA,FALSE,TRUE,Vehicle Code Violation
2013-09-03,09:13:46,NA,NA,NA,white,vehicular,FALSE,FALSE,NA,NA,FALSE,Vehicle Code Violation
2013-09-03,09:25:56,1570 BRANHAM LN,37.2530586,-121.898164,asian/pacific islander,NA,FALSE,TRUE,citation,NA,FALSE,Vehicle Code Violation
2013-09-03,09:25:56,1570 BRANHAM LN,37.2530586,-121.898164,black,NA,FALSE,TRUE,citation,NA,FALSE,Vehicle Code Violation
2013-09-03,09:25:56,1570 BRANHAM LN,37.2530586,-121.898164,hispanic,NA,FALSE,TRUE,citation,NA,FALSE,Vehicle Code Violation
2013-09-03,09:25:56,1570 BRANHAM LN,37.2530586,-121.898164,white,NA,FALSE,TRUE,citation,NA,FALSE,Vehicle Code Violation
2013-09-03,10:00:04,EAGLES LN AND HAYES AV,37.2563647,-121.8218898,NA,NA,TRUE,FALSE,arrest,NA,FALSE,NA
2013-09-03,10:22:49,E SAN ANTONIO ST AND S KING RD,37.3498934,-121.8525815,hispanic,vehicular,FALSE,FALSE,NA,NA,FALSE,Vehicle Code Violation
2013-09-03,10:59:15,ALUM ROCK AV AND EASTGATE AV,37.3535734,-121.8537615,white,vehicular,FALSE,TRUE,citation,NA,FALSE,Vehicle Code Violation
2013-09-03,11:58:45,AIRPORT BL AND SKYPORT DR,37.3620725,-121.9190371,asian/pacific islander,NA,FALSE,TRUE,citation,NA,FALSE,Vehicle Code Violation
2013-09-03,11:58:45,AIRPORT BL AND SKYPORT DR,37.3620725,-121.9190371,hispanic,NA,FALSE,TRUE,citation,NA,FALSE,Vehicle Code Violation
2013-09-03,11:58:45,AIRPORT BL AND SKYPORT DR,37.3620725,-121.9190371,other,NA,FALSE,TRUE,citation,TRUE,TRUE,NA
2013-09-03,11:58:45,AIRPORT BL AND SKYPORT DR,37.3620725,-121.9190371,white,NA,FALSE,TRUE,citation,NA,FALSE,Vehicle Code Violation
2013-09-03,14:06:02,STEVENS CREEK BL AND N WINCHESTER BL,37.3232674,-121.9500318,asian/pacific islander,NA,FALSE,TRUE,citation,NA,FALSE,Vehicle Code Violation
2013-09-03,14:06:02,STEVENS CREEK BL AND N WINCHESTER BL,37.3232674,-121.9500318,other,NA,FALSE,TRUE,citation,NA,NA,Vehicle Code Violation
2013-09-03,14:06:02,STEVENS CREEK BL AND N WINCHESTER BL,37.3232674,-121.9500318,white,NA,FALSE,TRUE,citation,NA,FALSE,Vehicle Code Violation
2013-09-03,14:54:41,MABURY RD AND LENFEST RD,37.3652894,-121.8718489,hispanic,pedestrian,FALSE,FALSE,NA,FALSE,TRUE,Vehicle Code Violation
2013-09-03,15:51:00,STEVENS CREEK BL AND N MONROE ST,37.3234706,-121.9433907,asian/pacific islander,NA,FALSE,TRUE,citation,NA,FALSE,Vehicle Code Violation
2013-09-03,15:51:00,STEVENS CREEK BL AND N MONROE ST,37.3234706,-121.9433907,hispanic,NA,FALSE,TRUE,citation,NA,FALSE,Vehicle Code Violation
2013-09-03,15:51:00,STEVENS CREEK BL AND N MONROE ST,37.3234706,-121.9433907,white,NA,FALSE,TRUE,citation,NA,FALSE,Vehicle Code Violation
2013-09-03,15:51:29,NA,NA,NA,white,NA,TRUE,FALSE,arrest,NA,FALSE,Muni Code Violation
2013-09-03,16:57:10,SNELL AV AND SANTA TERESA BL,37.2369701,-121.8305625,other,vehicular,FALSE,TRUE,citation,NA,NA,Consensual
2013-09-03,17:10:55,S KING RD AND MARSH ST,37.3380812,-121.8412611,other,vehicular,FALSE,TRUE,citation,NA,NA,Consensual
2013-09-03,17:29:27,EL CAJON DR AND SENTER RD,37.2823957,-121.823477,other,vehicular,FALSE,FALSE,NA,FALSE,TRUE,NA
2013-09-03,18:20:25,NA,NA,NA,asian/pacific islander,vehicular,FALSE,TRUE,citation,NA,FALSE,Vehicle Code Violation
2013-09-03,18:20:25,NA,NA,NA,black,vehicular,FALSE,TRUE,citation,NA,FALSE,Vehicle Code Violation
2013-09-03,18:20:25,NA,NA,NA,other,vehicular,FALSE,TRUE,citation,NA,NA,Vehicle Code Violation
2013-09-03,18:20:25,NA,NA,NA,white,vehicular,FALSE,TRUE,citation,NA,FALSE,Vehicle Code Violation
2013-09-03,19:48:33,1068 STORY RD,37.3313543,-121.8540606,hispanic,pedestrian,FALSE,TRUE,citation,TRUE,TRUE,Muni Code Violation
2013-09-03,20:24:43,SENTER RD AND COYOTE RD,37.2796048,-121.8234115,hispanic,vehicular,TRUE,FALSE,arrest,TRUE,TRUE,Vehicle Code Violation
2013-09-03,23:49:47,MONTEREY RD AND RANCHO DR,37.2816305,-121.8391058,white,vehicular,FALSE,FALSE,NA,FALSE,TRUE,Vehicle Code Violation
2013-09-04,00:14:48,NA,NA,NA,hispanic,pedestrian,FALSE,FALSE,NA,FALSE,TRUE,Muni Code Violation
2013-09-04,01:28:58,NA,NA,NA,asian/pacific islander,vehicular,FALSE,TRUE,citation,NA,FALSE,Vehicle Code Violation
2013-09-04,06:53:37,S WHITE RD AND ABORN RD,37.3140543,-121.7915396,asian/pacific islander,NA,FALSE,TRUE,citation,NA,FALSE,Vehicle Code Violation
2013-09-04,07:25:40,2100 MOORPARK AV,37.315671,-121.930156,other,NA,FALSE,TRUE,citation,NA,FALSE,Vehicle Code Violation
2013-09-04,07:25:40,2100 MOORPARK AV,37.315671,-121.930156,white,NA,FALSE,TRUE,citation,NA,FALSE,Vehicle Code Violation
2013-09-04,07:36:19,YERBA BUENA RD AND HOMEPARK CT,37.3038151,-121.7534216,asian/pacific islander,NA,FALSE,TRUE,citation,NA,FALSE,Vehicle Code Violation
2013-09-04,07:36:19,YERBA BUENA RD AND HOMEPARK CT,37.3038151,-121.7534216,hispanic,NA,FALSE,TRUE,citation,NA,FALSE,Vehicle Code Violation
2013-09-04,07:36:19,YERBA BUENA RD AND HOMEPARK CT,37.3038151,-121.7534216,white,NA,FALSE,TRUE,citation,NA,FALSE,Vehicle Code Violation
2013-09-04,08:22:55,SKYPORT DR AND TECHNOLOGY DR,37.3652228,-121.916993,hispanic,NA,FALSE,TRUE,citation,NA,FALSE,Vehicle Code Violation
2013-09-04,08:22:55,SKYPORT DR AND TECHNOLOGY DR,37.3652228,-121.916993,other,NA,FALSE,TRUE,citation,NA,FALSE,Vehicle Code Violation
2013-09-04,10:50:32,SENTER RD AND KEYES ST,37.3256773,-121.8656671,hispanic,pedestrian,FALSE,FALSE,NA,FALSE,TRUE,Consensual
2013-09-04,10:50:32,SENTER RD AND KEYES ST,37.3256773,-121.8656671,other,pedestrian,FALSE,FALSE,NA,NA,NA,NA
2013-09-04,11:33:05,E ALMA AV AND S 1ST ST,37.3163813,-121.8740209,hispanic,pedestrian,FALSE,FALSE,NA,FALSE,TRUE,Vehicle Code Violation
2013-09-04,11:49:55,N 1ST ST AND E SANTA CLARA ST,37.3361554,-121.8906261,hispanic,pedestrian,NA,NA,NA,NA,FALSE,BOL/APB/Watch Bulletin
2013-09-04,12:23:24,NA,NA,NA,asian/pacific islander,NA,FALSE,TRUE,citation,NA,FALSE,Vehicle Code Violation
2013-09-04,12:23:24,NA,NA,NA,white,NA,FALSE,TRUE,citation,NA,FALSE,Vehicle Code Violation
2013-09-04,12:35:09,NA,NA,NA,white,vehicular,FALSE,FALSE,NA,NA,FALSE,Vehicle Code Violation
2013-09-04,13:12:15,BLOSSOM HILL RD AND ALMADEN EX,37.2509041,-121.8754524,hispanic,NA,FALSE,TRUE,citation,NA,FALSE,Vehicle Code Violation
2013-09-04,13:12:15,BLOSSOM HILL RD AND ALMADEN EX,37.2509041,-121.8754524,white,NA,FALSE,TRUE,citation,NA,FALSE,Vehicle Code Violation
2013-09-04,13:27:33,AIRPORT BL AND SKYPORT DR,37.3620725,-121.9190371,asian/pacific islander,NA,FALSE,TRUE,citation,NA,FALSE,Vehicle Code Violation
2013-09-04,13:27:33,AIRPORT BL AND SKYPORT DR,37.3620725,-121.9190371,black,NA,FALSE,TRUE,citation,NA,FALSE,Vehicle Code Violation
2013-09-04,13:27:33,AIRPORT BL AND SKYPORT DR,37.3620725,-121.9190371,hispanic,NA,FALSE,TRUE,citation,NA,FALSE,Vehicle Code Violation
2013-09-04,13:27:33,AIRPORT BL AND SKYPORT DR,37.3620725,-121.9190371,other,NA,FALSE,TRUE,citation,NA,FALSE,Vehicle Code Violation
2013-09-04,13:27:33,AIRPORT BL AND SKYPORT DR,37.3620725,-121.9190371,white,NA,FALSE,TRUE,citation,NA,FALSE,Vehicle Code Violation
2013-09-04,14:03:50,NA,NA,NA,asian/pacific islander,NA,FALSE,TRUE,citation,NA,FALSE,Vehicle Code Violation
2013-09-04,14:03:50,NA,NA,NA,black,NA,FALSE,TRUE,citation,NA,FALSE,Vehicle Code Violation
2013-09-04,14:03:50,NA,NA,NA,hispanic,NA,FALSE,TRUE,citation,NA,FALSE,Vehicle Code Violation
2013-09-04,14:03:50,NA,NA,NA,white,NA,FALSE,TRUE,citation,NA,FALSE,Vehicle Code Violation
2013-09-04,14:20:49,HORNING ST AND N 11TH ST,37.3605793,-121.8942958,hispanic,vehicular,FALSE,TRUE,citation,NA,FALSE,Vehicle Code Violation
2013-09-04,14:32:42,HORNING ST AND N 11TH ST,37.3605793,-121.8942958,hispanic,vehicular,FALSE,TRUE,citation,NA,FALSE,Vehicle Code Violation
2013-09-04,15:01:39,ADRIAN WY AND BARLOW AV,37.3421031,-121.8304139,hispanic,vehicular,FALSE,FALSE,NA,NA,FALSE,Vehicle Code Violation
2013-09-04,15:17:04,W CAPITOL EX AND COPPERFIELD DR,37.2744465,-121.8545614,hispanic,vehicular,FALSE,FALSE,NA,FALSE,TRUE,Vehicle Code Violation
2013-09-04,16:33:42,W SAN CARLOS ST AND ROYAL AV,37.3242762,-121.9012251,hispanic,pedestrian,FALSE,FALSE,NA,NA,FALSE,Consensual
2013-09-04,16:54:55,SHERMAN ST AND W ALMA AV,37.3156378,-121.875082,hispanic,vehicular,FALSE,FALSE,NA,FALSE,TRUE,Vehicle Code Violation
2013-09-04,17:05:50,S KING RD AND VIRGINIA AV,37.3449234,-121.8478913,hispanic,vehicular,FALSE,TRUE,citation,NA,FALSE,Vehicle Code Violation
2013-09-04,17:08:50,MORRILL AV AND CROPLEY AV,37.4088708,-121.8701677,hispanic,vehicular,FALSE,FALSE,NA,NA,FALSE,Vehicle Code Violation
2013-09-04,17:09:02,NA,NA,NA,NA,NA,FALSE,FALSE,NA,NA,FALSE,NA
2013-09-04,17:27:54,LOS ARBOLES ST AND RICHDALE AV,37.2860414,-121.8298914,other,vehicular,FALSE,FALSE,NA,FALSE,TRUE,Vehicle Code Violation
2013-09-04,17:44:14,W SAN CARLOS ST AND SHASTA AV,37.3234954,-121.9238436,black,vehicular,FALSE,FALSE,NA,NA,FALSE,Vehicle Code Violation
2013-09-04,17:47:00,COYOTE CREEK PLT 101,NA,NA,NA,vehicular,FALSE,FALSE,NA,NA,FALSE,NA
2013-09-04,17:49:59,HURAN DR AND WAVERLY AV,37.3271307,-121.8270698,hispanic,vehicular,FALSE,FALSE,NA,NA,FALSE,Vehicle Code Violation
2013-09-04,17:57:56,1883 BERMUDA WY,37.3307262,-121.83213,black,vehicular,FALSE,FALSE,NA,NA,FALSE,Vehicle Code Violation
2013-09-04,18:03:04,W SAN CARLOS ST AND MERIDIAN AV,37.3235635,-121.9137695,hispanic,vehicular,FALSE,TRUE,citation,NA,FALSE,Vehicle Code Violation
2013-09-04,18:26:28,W SAN CARLOS ST AND JOSEFA ST,37.3257281,-121.8984567,NA,vehicular,FALSE,FALSE,NA,NA,FALSE,NA
2013-09-04,19:00:27,3161 SENTER RD,37.2922855,-121.8335758,other,pedestrian,TRUE,FALSE,arrest,FALSE,TRUE,Consensual
2013-09-04,19:10:59,2041 TERILYN AV,37.3249712,-121.8357778,hispanic,vehicular,FALSE,FALSE,NA,FALSE,TRUE,Vehicle Code Violation
2013-09-04,19:32:51,NA,NA,NA,hispanic,vehicular,FALSE,FALSE,NA,NA,FALSE,Vehicle Code Violation
2013-09-04,19:44:38,E SAN ANTONIO ST AND S KING RD,37.3498934,-121.8525815,hispanic,vehicular,FALSE,FALSE,NA,NA,FALSE,Vehicle Code Violation
2013-09-04,19:48:14,N CAPITOL AV AND MCKEE RD,37.370091,-121.8431737,hispanic,vehicular,FALSE,FALSE,NA,NA,FALSE,Vehicle Code Violation
2013-09-04,20:43:03,HARWOOD RD AND CHEVALIER DR,37.2400794,-121.91303,hispanic,vehicular,FALSE,TRUE,citation,FALSE,TRUE,Vehicle Code Violation
2013-09-04,20:43:03,HARWOOD RD AND CHEVALIER DR,37.2400794,-121.91303,white,vehicular,FALSE,TRUE,citation,FALSE,TRUE,Vehicle Code Violation
2013-09-04,22:57:22,ST FLORIAN WY AND CASSELINO DR,37.2839271,-121.859344,white,NA,TRUE,FALSE,arrest,NA,FALSE,Muni Code Violation
2013-09-05,00:20:11,NA,NA,NA,asian/pacific islander,vehicular,FALSE,FALSE,NA,NA,FALSE,Vehicle Code Violation
2013-09-05,00:35:13,ALMADEN EX AND VIA MONTE DR,37.2459071,-121.8748915,white,NA,TRUE,FALSE,arrest,FALSE,TRUE,Vehicle Code Violation
2013-09-05,00:39:24,3189 S WHITE RD,37.3164447,-121.7931128,black,pedestrian,FALSE,FALSE,NA,FALSE,TRUE,Consensual
2013-09-05,00:44:28,NA,NA,NA,white,vehicular,FALSE,FALSE,NA,NA,FALSE,Vehicle Code Violation
2013-09-05,06:42:50,LEIGH AV AND MOORPARK AV,37.316418,-121.9237794,asian/pacific islander,NA,FALSE,TRUE,citation,NA,FALSE,Vehicle Code Violation
2013-09-05,06:42:50,LEIGH AV AND MOORPARK AV,37.316418,-121.9237794,black,NA,FALSE,TRUE,citation,NA,FALSE,Vehicle Code Violation
2013-09-05,06:42:50,LEIGH AV AND MOORPARK AV,37.316418,-121.9237794,hispanic,NA,FALSE,TRUE,citation,NA,FALSE,Vehicle Code Violation
2013-09-05,06:42:50,LEIGH AV AND MOORPARK AV,37.316418,-121.9237794,white,NA,FALSE,TRUE,citation,NA,FALSE,Vehicle Code Violation
2013-09-05,06:52:49,YERBA BUENA RD AND GARDIE PLACE WY,37.2987905,-121.8045627,asian/pacific islander,NA,FALSE,TRUE,citation,NA,FALSE,Vehicle Code Violation
2013-09-05,06:52:49,YERBA BUENA RD AND GARDIE PLACE WY,37.2987905,-121.8045627,black,NA,FALSE,TRUE,citation,NA,FALSE,Vehicle Code Violation
2013-09-05,06:52:49,YERBA BUENA RD AND GARDIE PLACE WY,37.2987905,-121.8045627,hispanic,NA,FALSE,TRUE,citation,NA,FALSE,Vehicle Code Violation
2013-09-05,06:52:49,YERBA BUENA RD AND GARDIE PLACE WY,37.2987905,-121.8045627,white,NA,FALSE,TRUE,citation,NA,FALSE,Vehicle Code Violation
2013-09-05,07:16:14,E TAYLOR ST AND N 23RD ST,37.3597991,-121.8786342,asian/pacific islander,NA,FALSE,TRUE,citation,NA,FALSE,Vehicle Code Violation
2013-09-05,07:16:14,E TAYLOR ST AND N 23RD ST,37.3597991,-121.8786342,hispanic,NA,FALSE,TRUE,citation,NA,FALSE,Vehicle Code Violation
2013-09-05,07:16:14,E TAYLOR ST AND N 23RD ST,37.3597991,-121.8786342,other,NA,FALSE,TRUE,citation,NA,FALSE,Vehicle Code Violation
2013-09-05,07:16:14,E TAYLOR ST AND N 23RD ST,37.3597991,-121.8786342,white,NA,FALSE,TRUE,citation,NA,FALSE,Vehicle Code Violation
2013-09-05,07:38:18,AIRPORT BL AND SKYPORT DR,37.3620725,-121.9190371,asian/pacific islander,NA,FALSE,TRUE,citation,NA,FALSE,Vehicle Code Violation
2013-09-05,07:38:18,AIRPORT BL AND SKYPORT DR,37.3620725,-121.9190371,black,NA,FALSE,TRUE,citation,NA,FALSE,Vehicle Code Violation
2013-09-05,07:38:18,AIRPORT BL AND SKYPORT DR,37.3620725,-121.9190371,hispanic,NA,FALSE,TRUE,citation,NA,FALSE,Vehicle Code Violation
2013-09-05,07:38:18,AIRPORT BL AND SKYPORT DR,37.3620725,-121.9190371,white,NA,FALSE,TRUE,citation,NA,FALSE,Vehicle Code Violation
2013-09-05,07:38:24,PEARL AV AND BRANHAM LN,37.2655787,-121.8660564,asian/pacific islander,NA,FALSE,TRUE,citation,NA,FALSE,Vehicle Code Violation
2013-09-05,07:38:24,PEARL AV AND BRANHAM LN,37.2655787,-121.8660564,black,NA,FALSE,TRUE,citation,NA,FALSE,Vehicle Code Violation
2013-09-05,07:38:24,PEARL AV AND BRANHAM LN,37.2655787,-121.8660564,hispanic,NA,FALSE,TRUE,citation,NA,FALSE,Vehicle Code Violation
2013-09-05,07:38:24,PEARL AV AND BRANHAM LN,37.2655787,-121.8660564,white,NA,FALSE,TRUE,citation,NA,FALSE,Vehicle Code Violation
2013-09-05,07:39:10,E BROKAW RD AND N 1ST ST,37.3733655,-121.9182131,other,NA,FALSE,TRUE,citation,NA,NA,NA
2013-09-05,07:39:10,E BROKAW RD AND N 1ST ST,37.3733655,-121.9182131,other,NA,FALSE,TRUE,citation,NA,NA,NA
2013-09-05,07:39:10,E BROKAW RD AND N 1ST ST,37.3733655,-121.9182131,other,NA,FALSE,TRUE,citation,NA,NA,NA
2013-09-05,07:39:21,E BROKAW RD AND N 1ST ST,37.3733655,-121.9182131,asian/pacific islander,NA,FALSE,TRUE,citation,NA,FALSE,Vehicle Code Violation
2013-09-05,07:39:21,E BROKAW RD AND N 1ST ST,37.3733655,-121.9182131,hispanic,NA,FALSE,TRUE,citation,NA,FALSE,Vehicle Code Violation
2013-09-05,07:39:21,E BROKAW RD AND N 1ST ST,37.3733655,-121.9182131,white,NA,FALSE,TRUE,citation,NA,FALSE,Vehicle Code Violation
2013-09-05,08:25:02,BRANHAM LN AND PEARL AV,37.2655787,-121.8660564,white,NA,FALSE,TRUE,citation,NA,FALSE,Vehicle Code Violation
2013-09-05,08:58:32,TULLY RD AND MONTEREY RD,37.3036263,-121.8610665,hispanic,vehicular,TRUE,FALSE,arrest,FALSE,TRUE,Vehicle Code Violation
2013-09-05,08:58:32,TULLY RD AND MONTEREY RD,37.3036263,-121.8610665,NA,vehicular,TRUE,FALSE,arrest,NA,FALSE,NA
2013-09-05,09:49:53,KERLEY DR AND E GISH RD,37.3625638,-121.9080946,hispanic,vehicular,FALSE,FALSE,NA,NA,FALSE,Vehicle Code Violation
2013-09-05,10:16:49,OAKLAND RD AND CORIE CT,37.3768435,-121.8953771,hispanic,pedestrian,FALSE,TRUE,citation,TRUE,TRUE,Muni Code Violation
2013-09-05,10:17:23,SEBASIAN WY AND ARDEN FARMS PL,37.2840605,-121.8257489,hispanic,vehicular,FALSE,TRUE,citation,NA,FALSE,Vehicle Code Violation
2013-09-05,13:30:48,N 4TH ST AND E GISH RD,37.3633763,-121.9065819,white,vehicular,FALSE,TRUE,citation,NA,FALSE,Vehicle Code Violation
2013-09-05,13:48:52,N 11TH ST AND SANTA ANA AV,37.359847,-121.8937445,hispanic,vehicular,FALSE,TRUE,citation,NA,FALSE,Vehicle Code Violation
2013-09-05,14:06:39,NA,NA,NA,hispanic,vehicular,FALSE,TRUE,citation,FALSE,TRUE,Vehicle Code Violation
2013-09-05,14:34:35,COTTLE RD AND SANTA TERESA BL,37.2370677,-121.8039365,other,vehicular,FALSE,FALSE,NA,NA,NA,Vehicle Code Violation
2013-09-05,14:46:55,SANTA TERESA BL AND INDIAN AV,37.2373627,-121.8442738,hispanic,vehicular,FALSE,FALSE,NA,NA,FALSE,Vehicle Code Violation
2013-09-05,15:26:48,TULLY RD AND MONTEREY RD,37.3036263,-121.8610665,asian/pacific islander,NA,FALSE,TRUE,citation,NA,FALSE,Vehicle Code Violation
2013-09-05,15:26:48,TULLY RD AND MONTEREY RD,37.3036263,-121.8610665,other,NA,FALSE,TRUE,citation,NA,NA,Vehicle Code Violation
2013-09-05,15:48:23,NA,NA,NA,other,vehicular,FALSE,FALSE,NA,NA,NA,NA
2013-09-05,16:22:57,S 6TH ST AND E WILLIAM ST,37.3311082,-121.8795724,black,NA,TRUE,FALSE,arrest,FALSE,TRUE,Muni Code Violation
2013-09-05,18:16:02,CHYNOWETH AV AND DUESENBERG DR,37.2589341,-121.8402523,NA,NA,FALSE,FALSE,NA,NA,FALSE,NA
2013-09-05,18:45:27,5836 PENTZ WY,NA,NA,NA,NA,TRUE,FALSE,arrest,NA,FALSE,NA
2013-09-05,19:35:41,MONTEREY RD AND FEHREN DR,37.2840483,-121.8415311,hispanic,vehicular,FALSE,FALSE,NA,FALSE,TRUE,Vehicle Code Violation
2013-09-05,19:50:57,830 BLOSSOM HILL RD,NA,NA,NA,NA,FALSE,FALSE,NA,NA,FALSE,NA
2013-09-05,20:00:35,5884 MACADAM CT,NA,NA,NA,NA,FALSE,FALSE,NA,NA,FALSE,NA
2013-09-05,20:46:32,MOSELLE DR AND VINEYARD DR,NA,NA,NA,NA,FALSE,FALSE,NA,NA,FALSE,NA
2013-09-05,21:57:54,STORY RD AND S WHITE RD,37.3561872,-121.819104,hispanic,pedestrian,FALSE,TRUE,citation,TRUE,TRUE,Vehicle Code Violation
2013-09-05,22:24:24,S 2ND ST AND FOUNTAIN AL,37.3362276,-121.8891536,black,NA,TRUE,FALSE,arrest,FALSE,TRUE,BOL/APB/Watch Bulletin
2013-09-05,22:53:12,N KING RD AND ALUM ROCK AV,37.3529345,-121.8555622,hispanic,pedestrian,FALSE,FALSE,NA,FALSE,TRUE,Vehicle Code Violation
2013-09-05,23:07:20,ALMADEN AV AND W ALMA AV,37.3134577,-121.878162,hispanic,vehicular,TRUE,FALSE,arrest,FALSE,TRUE,Vehicle Code Violation
2013-09-05,23:24:49,NA,NA,NA,hispanic,vehicular,TRUE,FALSE,arrest,FALSE,TRUE,Vehicle Code Violation
2013-09-05,23:36:30,1901 CHARCOT AV,37.3782409,-121.9252828,hispanic,vehicular,FALSE,FALSE,NA,NA,FALSE,Vehicle Code Violation
2013-09-05,23:49:18,COYOTE RD AND CENTURY PLAZA WY,37.2596125,-121.794681,asian/pacific islander,vehicular,FALSE,TRUE,citation,NA,FALSE,Vehicle Code Violation
2013-09-06,00:25:14,S KING RD AND SEMINOLE WY,37.3240534,-121.8275557,hispanic,pedestrian,FALSE,FALSE,NA,NA,FALSE,Vehicle Code Violation
2013-09-06,01:06:41,SAN TOMAS EX AND PRUNERIDGE AV,NA,NA,other,vehicular,FALSE,FALSE,NA,NA,FALSE,Vehicle Code Violation
2013-09-06,01:18:19,2081 N 1ST ST,37.3729299,-121.9195328,hispanic,pedestrian,TRUE,FALSE,arrest,TRUE,TRUE,Consensual
2013-09-06,01:46:52,N 1ST ST AND E SANTA CLARA ST,37.3361554,-121.8906261,NA,NA,FALSE,TRUE,citation,NA,FALSE,NA
2013-09-06,07:24:39,NA,NA,NA,asian/pacific islander,vehicular,FALSE,TRUE,citation,NA,FALSE,Vehicle Code Violation
2013-09-06,07:53:36,OAKLAND RD AND E BROKAW RD,37.3826816,-121.8959423,asian/pacific islander,NA,FALSE,TRUE,citation,NA,FALSE,Vehicle Code Violation
2013-09-06,07:53:36,OAKLAND RD AND E BROKAW RD,37.3826816,-121.8959423,other,NA,FALSE,TRUE,citation,NA,FALSE,Vehicle Code Violation
2013-09-06,07:53:36,OAKLAND RD AND E BROKAW RD,37.3826816,-121.8959423,white,NA,FALSE,TRUE,citation,NA,FALSE,Vehicle Code Violation
2013-09-06,09:02:39,N 4TH ST AND E MISSION ST,37.3527321,-121.898644,hispanic,vehicular,FALSE,FALSE,NA,NA,FALSE,Vehicle Code Violation
2013-09-06,11:41:59,ALUM ROCK AV AND CHECKERS DR,37.3555025,-121.8500824,other,vehicular,FALSE,FALSE,NA,NA,FALSE,NA
2013-09-06,12:36:17,N 1ST ST AND E ROSEMARY ST,37.360007,-121.9084608,hispanic,vehicular,FALSE,FALSE,NA,NA,FALSE,Vehicle Code Violation
2013-09-06,13:16:13,NA,NA,NA,NA,NA,FALSE,TRUE,citation,NA,FALSE,NA
2013-09-06,13:24:37,1095 E BROKAW RD,37.3828455,-121.8961263,hispanic,vehicular,FALSE,FALSE,NA,NA,FALSE,Vehicle Code Violation
2013-09-06,14:35:12,MABURY RD AND N WHITE RD,37.3838063,-121.84231,asian/pacific islander,vehicular,FALSE,FALSE,NA,NA,FALSE,Vehicle Code Violation
2013-09-06,15:41:49,E HEDDING ST AND BERRYESSA RD,37.3628926,-121.8858966,hispanic,vehicular,FALSE,TRUE,citation,NA,FALSE,Vehicle Code Violation
2013-09-06,16:15:29,N 21ST ST AND E JULIAN ST,37.3500082,-121.8739225,hispanic,pedestrian,FALSE,FALSE,NA,FALSE,TRUE,Muni Code Violation
2013-09-06,16:30:07,E SAN ANTONIO ST AND S 24TH ST,37.3440477,-121.864857,hispanic,vehicular,FALSE,FALSE,NA,FALSE,TRUE,Vehicle Code Violation
2013-09-06,16:54:07,5502 MONTEREY RD,37.2563734,-121.7991105,NA,NA,FALSE,FALSE,NA,NA,FALSE,NA
2013-09-06,16:57:45,SENTER RD AND E ALMA AV,37.3216271,-121.8619514,hispanic,pedestrian,FALSE,TRUE,citation,NA,FALSE,Muni Code Violation
2013-09-06,17:01:15,FRUITDALE AV AND ST ELIZABETH DR,37.3106578,-121.9157013,hispanic,vehicular,FALSE,TRUE,citation,NA,FALSE,Vehicle Code Violation
2013-09-06,17:06:32,1876 BERMUDA WY,37.3312755,-121.8316151,hispanic,vehicular,FALSE,TRUE,citation,NA,FALSE,Vehicle Code Violation
2013-09-06,17:14:11,2270 BLUEBELL AV,37.323154,-121.8300392,hispanic,vehicular,FALSE,FALSE,NA,FALSE,TRUE,Vehicle Code Violation
2013-09-06,17:22:15,MONTEREY RD AND RANCHO DR,37.2816305,-121.8391058,other,vehicular,TRUE,FALSE,arrest,NA,NA,BOL/APB/Watch Bulletin
2013-09-06,18:21:30,1405 EDEN AV,37.2987627,-121.95471,hispanic,pedestrian,FALSE,TRUE,citation,FALSE,TRUE,Consensual
2013-09-06,18:21:38,LANDESS AV AND MORRILL AV,37.415961,-121.8750932,white,NA,TRUE,FALSE,arrest,NA,FALSE,Muni Code Violation
2013-09-06,18:21:38,LANDESS AV AND MORRILL AV,37.415961,-121.8750932,white,NA,TRUE,FALSE,arrest,FALSE,TRUE,Muni Code Violation
2013-09-06,18:23:55,ORLANDO DR AND OCALA AV,37.331634,-121.833817,hispanic,vehicular,FALSE,FALSE,NA,FALSE,TRUE,Vehicle Code Violation
2013-09-06,18:30:49,N JACKSON AV AND ALUM ROCK AV,37.3585942,-121.8435772,white,vehicular,TRUE,FALSE,arrest,TRUE,TRUE,Vehicle Code Violation
2013-09-06,18:39:38,NA,NA,NA,hispanic,vehicular,FALSE,FALSE,NA,FALSE,TRUE,Vehicle Code Violation
2013-09-06,18:48:05,ALMADEN EX AND CHERRY AV,37.2591239,-121.8761193,other,vehicular,FALSE,TRUE,citation,NA,FALSE,Vehicle Code Violation
2013-09-06,19:06:50,3875 SEVEN TREES BL,37.2835951,-121.8331436,hispanic,vehicular,FALSE,FALSE,NA,FALSE,TRUE,Vehicle Code Violation
2013-09-06,19:48:41,E SAN FERNANDO ST AND S JACKSON AV,37.3569994,-121.8420453,asian/pacific islander,vehicular,FALSE,FALSE,NA,FALSE,TRUE,Vehicle Code Violation
2013-09-06,20:09:15,S KING RD AND KAMMERER AV,37.3469316,-121.8499232,hispanic,NA,TRUE,FALSE,arrest,FALSE,TRUE,Vehicle Code Violation
2013-09-06,21:17:39,W HUMBOLDT ST AND S 1ST ST,37.3187262,-121.8763777,black,vehicular,FALSE,TRUE,citation,FALSE,TRUE,Vehicle Code Violation
2013-09-06,21:21:56,W CAPITOL EX AND BLUEFIELD DR,37.2753111,-121.8515277,hispanic,vehicular,FALSE,TRUE,citation,NA,FALSE,Vehicle Code Violation
2013-09-06,21:27:40,6245 CAHALAN AV,NA,NA,NA,NA,FALSE,FALSE,NA,NA,FALSE,NA
2013-09-06,21:41:56,MT VISTA DR AND MT HERMAN DR,37.3513082,-121.813567,hispanic,vehicular,FALSE,FALSE,NA,NA,FALSE,Vehicle Code Violation
2013-09-06,21:45:21,E CAPITOL EX AND EASTRIDGE LP,37.3266339,-121.8094728,hispanic,vehicular,FALSE,FALSE,NA,NA,FALSE,Vehicle Code Violation
2013-09-06,22:59:15,KEYES ST AND SENTER RD,37.3256773,-121.8656671,hispanic,vehicular,FALSE,TRUE,citation,FALSE,TRUE,Vehicle Code Violation
2013-09-06,23:32:48,880 TULLY RD,37.3114172,-121.8409157,hispanic,pedestrian,TRUE,FALSE,arrest,TRUE,TRUE,Muni Code Violation
2013-09-06,23:38:20,MONTEREY RD AND PHELAN AV,37.3112879,-121.8689544,white,vehicular,FALSE,FALSE,NA,NA,FALSE,Vehicle Code Violation
2013-09-06,23:57:02,STORY RD AND REMILLARD CT,37.3278204,-121.8607615,hispanic,vehicular,FALSE,TRUE,citation,FALSE,TRUE,Vehicle Code Violation
2013-09-07,02:47:14,N KING RD AND ALUM ROCK AV,37.3529345,-121.8555622,black,NA,FALSE,TRUE,citation,FALSE,TRUE,Vehicle Code Violation
2013-09-07,14:42:35,NA,NA,NA,hispanic,vehicular,FALSE,TRUE,citation,FALSE,TRUE,Vehicle Code Violation
2013-09-07,17:02:49,253 CHALET AV,NA,NA,hispanic,NA,TRUE,FALSE,arrest,TRUE,TRUE,Consensual
2013-09-07,17:03:25,N 21ST ST AND E EMPIRE ST,37.3542792,-121.8770772,hispanic,vehicular,FALSE,FALSE,NA,FALSE,TRUE,Vehicle Code Violation
2013-09-07,18:22:05,MT BLANC WY AND MT MCKINLEY DR,37.3495923,-121.8088175,asian/pacific islander,vehicular,TRUE,FALSE,arrest,TRUE,TRUE,Vehicle Code Violation
2013-09-07,18:55:51,W ALMA AV AND LOCUST ST,37.3122112,-121.8799651,hispanic,vehicular,FALSE,TRUE,citation,TRUE,TRUE,Vehicle Code Violation
2013-09-07,20:05:12,N WINCHESTER BL AND FOREST AV,37.3273665,-121.9502301,black,vehicular,FALSE,FALSE,NA,NA,FALSE,Vehicle Code Violation
2013-09-07,20:34:25,WILLOW GLEN WY AND CREEK DR,37.3038837,-121.8829499,black,vehicular,FALSE,FALSE,NA,NA,FALSE,Vehicle Code Violation
2013-09-07,21:47:41,N 17TH ST AND E EMPIRE ST,37.3524934,-121.8808393,hispanic,pedestrian,FALSE,FALSE,NA,NA,FALSE,Vehicle Code Violation
2013-09-07,22:10:31,SAN JOSE AV AND MONTEREY RD,37.312637,-121.8700622,hispanic,vehicular,FALSE,TRUE,citation,NA,NA,Vehicle Code Violation
2013-09-07,22:17:08,S MONTGOMERY ST AND PARK AV,37.3263905,-121.9008387,hispanic,pedestrian,FALSE,TRUE,citation,FALSE,TRUE,Vehicle Code Violation
2013-09-08,00:37:02,STORY RD AND MCGINNESS AV,37.35268,-121.8244083,hispanic,vehicular,TRUE,FALSE,arrest,TRUE,TRUE,Vehicle Code Violation
2013-09-08,01:14:15,CHERRY AV AND EDGAR CT,37.2580494,-121.8801499,white,vehicular,FALSE,TRUE,citation,FALSE,TRUE,Vehicle Code Violation
2013-09-08,09:28:13,N 1ST ST AND E HEDDING ST,37.3532962,-121.9035499,other,vehicular,FALSE,TRUE,citation,NA,NA,Vehicle Code Violation
2013-09-08,16:14:25,NA,NA,NA,other,vehicular,FALSE,FALSE,NA,NA,NA,NA
2013-09-08,16:33:48,LEIGH AV AND MOORPARK AV,37.316418,-121.9237794,hispanic,vehicular,FALSE,FALSE,NA,NA,FALSE,Vehicle Code Violation
2013-09-08,16:45:26,CAMDEN AV AND ALMADEN EX,37.2217757,-121.8622477,white,vehicular,FALSE,FALSE,NA,NA,FALSE,Vehicle Code Violation
2013-09-08,17:04:59,SANDERS AV AND S SUNSET AV,37.3484113,-121.8426441,hispanic,vehicular,FALSE,FALSE,NA,FALSE,TRUE,Vehicle Code Violation
2013-09-08,17:30:58,1460 OAKLAND RD,37.374659,-121.894015,white,pedestrian,FALSE,FALSE,NA,FALSE,TRUE,Muni Code Violation
2013-09-08,17:36:52,S JACKSON AV AND STORY RD,37.3469471,-121.832597,hispanic,pedestrian,FALSE,FALSE,NA,FALSE,TRUE,Vehicle Code Violation
2013-09-08,17:44:45,TULLY RD AND GALVESTON AV,37.3115067,-121.8423563,asian/pacific islander,pedestrian,FALSE,FALSE,NA,NA,FALSE,Vehicle Code Violation
2013-09-08,18:41:33,MCKEE RD AND N CAPITOL AV,37.370091,-121.8431737,black,vehicular,FALSE,FALSE,NA,NA,FALSE,Consensual
2013-09-08,20:17:26,2477 ALVIN AV,37.3189798,-121.8272415,other,pedestrian,FALSE,TRUE,citation,NA,NA,NA
2013-09-08,22:47:54,MERIDIAN AV AND CURCI DR,37.3078648,-121.9136475,white,pedestrian,FALSE,FALSE,NA,NA,FALSE,Vehicle Code Violation
2013-09-08,22:55:49,GUADALUPE PY AND COLEMAN AV,37.3419742,-121.9002293,black,pedestrian,FALSE,FALSE,NA,FALSE,TRUE,Vehicle Code Violation
2013-09-08,23:27:41,FLANIGAN DR AND ALVIN AV,37.3178012,-121.8248426,hispanic,pedestrian,FALSE,FALSE,NA,FALSE,TRUE,Vehicle Code Violation
2013-09-09,00:22:43,S 1ST ST AND KEYES ST,37.3200755,-121.8776711,hispanic,vehicular,FALSE,TRUE,citation,FALSE,TRUE,Vehicle Code Violation
2013-09-09,00:43:13,S CAPITOL AV AND WILBUR AV,37.3579855,-121.831845,hispanic,vehicular,FALSE,FALSE,NA,FALSE,TRUE,Vehicle Code Violation
2013-09-09,02:01:04,ALUM ROCK AV AND N JACKSON AV,37.3585942,-121.8435772,asian/pacific islander,vehicular,FALSE,TRUE,citation,FALSE,TRUE,Vehicle Code Violation
2013-09-09,02:01:04,ALUM ROCK AV AND N JACKSON AV,37.3585942,-121.8435772,hispanic,vehicular,FALSE,TRUE,citation,FALSE,TRUE,Vehicle Code Violation
2013-09-09,03:16:18,CATALDI DR AND CAMARGO DR,37.402544,-121.8686692,white,NA,TRUE,FALSE,arrest,FALSE,TRUE,Vehicle Code Violation
2013-09-09,06:38:49,1260 BRANHAM LN,37.2602208,-121.8829014,asian/pacific islander,NA,FALSE,TRUE,citation,NA,FALSE,Vehicle Code Violation
2013-09-09,06:38:49,1260 BRANHAM LN,37.2602208,-121.8829014,hispanic,NA,FALSE,TRUE,citation,NA,FALSE,Vehicle Code Violation
2013-09-09,06:38:49,1260 BRANHAM LN,37.2602208,-121.8829014,other,NA,FALSE,TRUE,citation,NA,NA,NA
2013-09-09,06:38:49,1260 BRANHAM LN,37.2602208,-121.8829014,white,NA,FALSE,TRUE,citation,NA,FALSE,Vehicle Code Violation
2013-09-09,07:49:09,1796 BRADFORD WY,NA,NA,asian/pacific islander,NA,FALSE,TRUE,citation,NA,FALSE,Vehicle Code Violation
2013-09-09,07:49:09,1796 BRADFORD WY,NA,NA,hispanic,NA,FALSE,TRUE,citation,NA,FALSE,Vehicle Code Violation
2013-09-09,07:49:09,1796 BRADFORD WY,NA,NA,white,NA,FALSE,TRUE,citation,NA,FALSE,Vehicle Code Violation
2013-09-09,07:58:29,CURTNER AV AND NEW JERSEY AV,37.2742129,-121.9272203,asian/pacific islander,NA,FALSE,TRUE,citation,NA,FALSE,Vehicle Code Violation
2013-09-09,07:58:29,CURTNER AV AND NEW JERSEY AV,37.2742129,-121.9272203,other,NA,FALSE,TRUE,citation,NA,FALSE,Vehicle Code Violation
2013-09-09,07:58:51,BURNETTE SCHOOL,NA,NA,other,NA,FALSE,FALSE,NA,NA,FALSE,Vehicle Code Violation
2013-09-09,07:58:51,BURNETTE SCHOOL,NA,NA,white,NA,FALSE,FALSE,NA,NA,FALSE,Vehicle Code Violation
2013-09-09,08:06:05,3200 SENTER RD,37.2924905,-121.8313803,asian/pacific islander,NA,FALSE,TRUE,citation,NA,FALSE,Vehicle Code Violation
2013-09-09,08:06:05,3200 SENTER RD,37.2924905,-121.8313803,hispanic,NA,FALSE,TRUE,citation,NA,FALSE,Vehicle Code Violation
2013-09-09,08:56:09,CURTNER AV AND SWEETBRIAR DR,37.2811096,-121.9105558,other,NA,FALSE,TRUE,citation,NA,NA,NA
2013-09-09,09:39:09,3200 SENTER RD,37.2924905,-121.8313803,hispanic,NA,FALSE,TRUE,citation,NA,NA,Vehicle Code Violation
2013-09-09,09:39:09,3200 SENTER RD,37.2924905,-121.8313803,hispanic,NA,FALSE,TRUE,citation,NA,FALSE,Vehicle Code Violation
2013-09-09,11:46:05,WILLIAMS RD AND WESTMONT CT,37.3088075,-121.9606519,black,vehicular,FALSE,TRUE,citation,NA,FALSE,Vehicle Code Violation
2013-09-09,12:16:58,WILLIAMS RD AND WESTMONT CT,37.3088075,-121.9606519,hispanic,vehicular,FALSE,TRUE,citation,NA,FALSE,Vehicle Code Violation
2013-09-09,12:34:59,BLACKFORD AV AND SARATOGA AV,37.314341,-121.9767129,hispanic,vehicular,FALSE,FALSE,NA,NA,FALSE,Vehicle Code Violation
2013-09-09,13:27:05,299 BASSETT ST,37.3391466,-121.9004172,hispanic,pedestrian,FALSE,FALSE,NA,FALSE,TRUE,Muni Code Violation
2013-09-09,14:45:50,CURTNER AV AND NEW JERSEY AV,37.2742129,-121.9272203,asian/pacific islander,NA,FALSE,FALSE,NA,NA,FALSE,Vehicle Code Violation
2013-09-09,16:41:48,EDUCATIONAL PARK DR AND SCHULTE DR,37.364912,-121.8576869,hispanic,vehicular,FALSE,FALSE,NA,TRUE,TRUE,Vehicle Code Violation
2013-09-09,17:45:19,2733 FLORENCE AV,37.360276,-121.832198,hispanic,vehicular,TRUE,FALSE,arrest,FALSE,TRUE,NA
2013-09-09,17:56:36,NA,NA,NA,white,pedestrian,TRUE,FALSE,arrest,TRUE,TRUE,Vehicle Code Violation
2013-09-09,17:56:36,NA,NA,NA,white,pedestrian,TRUE,FALSE,arrest,FALSE,TRUE,Vehicle Code Violation
2013-09-09,19:17:01,SENTER RD AND INDEPENDENCE DR,37.2964754,-121.8363485,other,pedestrian,FALSE,FALSE,NA,NA,NA,NA
2013-09-09,19:52:33,EVERGLADE AV AND CHIPLAY DR,37.3375418,-121.8384495,hispanic,pedestrian,FALSE,FALSE,NA,FALSE,TRUE,Vehicle Code Violation
2013-09-09,22:17:22,E SAN ANTONIO ST AND S SUNSET AV,37.3526711,-121.8468155,hispanic,pedestrian,TRUE,FALSE,arrest,FALSE,TRUE,Consensual
2013-09-09,23:07:27,CURTNER AV AND CANOAS GARDEN AV,37.2929497,-121.8746132,NA,pedestrian,FALSE,FALSE,NA,NA,FALSE,NA
2013-09-09,23:58:08,ALDRICH WY AND S KING RD,37.314801,-121.8186846,hispanic,vehicular,FALSE,FALSE,NA,NA,FALSE,Vehicle Code Violation
2013-09-10,00:03:19,BRANHAM LN AND JARVIS AV,37.2593936,-121.8903011,white,pedestrian,FALSE,FALSE,NA,NA,FALSE,Consensual
2013-09-10,00:10:43,S 9TH ST AND E WILLIAM ST,37.3326074,-121.8764532,hispanic,vehicular,TRUE,FALSE,arrest,TRUE,TRUE,Vehicle Code Violation
2013-09-10,01:03:04,ALMADEN EX AND CHERRY AV,37.2591239,-121.8761193,white,vehicular,FALSE,FALSE,NA,FALSE,TRUE,Vehicle Code Violation
2013-09-10,01:14:07,S KING RD AND OCALA AV,37.3310375,-121.8344692,other,pedestrian,FALSE,FALSE,NA,FALSE,TRUE,Vehicle Code Violation
2013-09-10,06:48:34,NA,NA,NA,asian/pacific islander,vehicular,FALSE,FALSE,NA,NA,FALSE,Vehicle Code Violation
2013-09-10,06:55:20,OAKLAND RD AND MCKAY DR,37.385787,-121.8978453,other,NA,FALSE,TRUE,citation,NA,NA,NA
2013-09-10,06:55:20,OAKLAND RD AND MCKAY DR,37.385787,-121.8978453,other,NA,FALSE,TRUE,citation,NA,NA,NA
2013-09-10,06:55:20,OAKLAND RD AND MCKAY DR,37.385787,-121.8978453,other,NA,FALSE,TRUE,citation,TRUE,TRUE,NA
2013-09-10,06:55:20,OAKLAND RD AND MCKAY DR,37.385787,-121.8978453,other,NA,FALSE,TRUE,citation,NA,NA,NA
2013-09-10,06:59:36,BLUEFIELD DR AND VISTAPARK DR,37.2707163,-121.8490359,other,NA,FALSE,TRUE,citation,NA,NA,NA
2013-09-10,09:15:56,NA,NA,NA,hispanic,pedestrian,FALSE,FALSE,NA,FALSE,TRUE,Consensual
2013-09-10,09:45:30,MCKEE RD AND N WHITE RD,37.3751153,-121.8356212,hispanic,NA,TRUE,FALSE,arrest,NA,FALSE,Consensual
2013-09-10,10:22:33,N WHITE RD AND MADELINE DR,37.3700397,-121.8316458,hispanic,NA,TRUE,FALSE,arrest,NA,FALSE,Consensual
2013-09-10,10:22:33,N WHITE RD AND MADELINE DR,37.3700397,-121.8316458,white,NA,TRUE,FALSE,arrest,NA,NA,Consensual
2013-09-10,10:38:18,LAWSON CT AND BRANHAM LN,37.2520963,-121.9069125,NA,pedestrian,FALSE,FALSE,NA,NA,FALSE,NA
2013-09-10,10:57:25,MCKEE RD AND N JACKSON AV,37.365241,-121.850014,hispanic,NA,TRUE,FALSE,arrest,NA,FALSE,Consensual
2013-09-10,11:31:50,3538 SENTER RD,37.2885438,-121.8282248,hispanic,pedestrian,TRUE,FALSE,arrest,TRUE,TRUE,Vehicle Code Violation
2013-09-10,11:34:22,ALUM ROCK AV AND STEWART AV,37.3663987,-121.8271919,hispanic,NA,TRUE,FALSE,arrest,NA,FALSE,Consensual
2013-09-10,15:06:54,170 UMBARGER RD,37.296524,-121.8494705,hispanic,vehicular,FALSE,TRUE,citation,FALSE,TRUE,Vehicle Code Violation
2013-09-10,17:36:57,WOOL CREEK DR AND NEEDLES DR,37.3146244,-121.8519079,asian/pacific islander,pedestrian,FALSE,TRUE,citation,TRUE,TRUE,Consensual
2013-09-10,18:19:21,MONTEREY RD AND ROEDER RD,37.2602242,-121.8102572,black,vehicular,FALSE,FALSE,NA,NA,FALSE,Vehicle Code Violation
2013-09-10,18:40:21,ALFRED WY AND ADRIAN WY,37.3388599,-121.8272631,NA,vehicular,FALSE,FALSE,NA,NA,FALSE,NA
2013-09-10,18:41:34,4060 SENTER RD,NA,NA,hispanic,NA,FALSE,TRUE,citation,TRUE,TRUE,Consensual
2013-09-10,19:19:52,NA,NA,NA,hispanic,vehicular,FALSE,TRUE,citation,NA,FALSE,Vehicle Code Violation
2013-09-10,20:02:36,W JULIAN ST AND N MONTGOMERY ST,37.3353643,-121.9033477,NA,vehicular,FALSE,FALSE,NA,NA,FALSE,NA
2013-09-10,20:18:57,W SAN FERNANDO ST AND ALMADEN BL,37.3322113,-121.8937034,hispanic,pedestrian,FALSE,TRUE,citation,NA,NA,Vehicle Code Violation
2013-09-10,20:39:03,SANTANA ROW AND STEVENS CREEK BL,37.3234555,-121.9478421,NA,vehicular,FALSE,FALSE,NA,NA,FALSE,NA
2013-09-10,22:47:45,N 13TH ST AND E JULIAN ST,37.346465,-121.8813967,white,pedestrian,FALSE,FALSE,NA,FALSE,TRUE,Muni Code Violation
2013-09-10,22:57:33,NORWOOD AV AND S WHITE RD,37.3286919,-121.7982291,hispanic,vehicular,FALSE,TRUE,citation,FALSE,TRUE,Vehicle Code Violation
2013-09-10,23:22:22,BLOSSOM HILL RD AND AYRSHIRE DR,37.2483876,-121.8823725,NA,vehicular,FALSE,TRUE,citation,NA,FALSE,NA
2013-09-11,01:33:14,E CAPITOL EX AND SENTER RD,37.2934315,-121.8331233,hispanic,pedestrian,TRUE,FALSE,arrest,FALSE,TRUE,BOL/APB/Watch Bulletin
2013-09-11,01:51:39,STORY RD AND MCLAUGHLIN AV,37.3328353,-121.8536604,hispanic,vehicular,TRUE,FALSE,arrest,FALSE,TRUE,Vehicle Code Violation
2013-09-11,03:19:43,NA,NA,NA,NA,vehicular,FALSE,FALSE,NA,NA,FALSE,NA
2013-09-11,08:39:24,N 1ST ST AND CHARCOT AV,37.3791592,-121.922455,hispanic,vehicular,FALSE,FALSE,NA,NA,FALSE,Vehicle Code Violation
2013-09-11,08:56:59,E HEDDING ST AND N 11TH ST,37.3584122,-121.8928184,white,vehicular,FALSE,TRUE,citation,NA,FALSE,Vehicle Code Violation
2013-09-11,12:17:32,CONCOURSE DR AND LUNDY AV,37.3970629,-121.8908801,asian/pacific islander,vehicular,FALSE,TRUE,citation,FALSE,TRUE,Vehicle Code Violation
2013-09-11,13:10:40,837 N SAN PEDRO ST,NA,NA,black,NA,FALSE,FALSE,NA,NA,NA,BOL/APB/Watch Bulletin
2013-09-11,13:10:40,837 N SAN PEDRO ST,NA,NA,other,NA,FALSE,FALSE,NA,NA,NA,NA
2013-09-11,14:58:15,TULLY RD AND LA RAGIONE AV,37.3098343,-121.8449517,asian/pacific islander,pedestrian,TRUE,FALSE,arrest,TRUE,TRUE,BOL/APB/Watch Bulletin
2013-09-11,15:08:13,N 1ST ST AND E GISH RD,37.3617915,-121.9095366,black,vehicular,FALSE,TRUE,citation,FALSE,TRUE,Vehicle Code Violation
2013-09-11,16:40:12,3200 LOMA VERDE DR,37.29862,-121.9529998,hispanic,vehicular,FALSE,FALSE,NA,FALSE,TRUE,Vehicle Code Violation
2013-09-11,18:08:13,1083 WALNUT WOODS DR,37.3288452,-121.8531157,hispanic,vehicular,FALSE,FALSE,NA,NA,FALSE,Vehicle Code Violation
2013-09-11,18:56:12,SEACLIFF WY AND DIXIE DR,37.3220743,-121.8280977,asian/pacific islander,NA,FALSE,TRUE,citation,NA,FALSE,Muni Code Violation
2013-09-11,18:56:12,SEACLIFF WY AND DIXIE DR,37.3220743,-121.8280977,hispanic,NA,FALSE,TRUE,citation,NA,FALSE,Muni Code Violation
2013-09-11,19:53:05,CAMDEN AV AND KOOSER RD,37.2401483,-121.9037661,black,vehicular,TRUE,FALSE,arrest,FALSE,TRUE,Vehicle Code Violation
2013-09-11,19:53:05,CAMDEN AV AND KOOSER RD,37.2401483,-121.9037661,white,vehicular,TRUE,FALSE,arrest,FALSE,TRUE,Vehicle Code Violation
2013-09-11,20:25:00,1501 ALMADEN EX,37.3099109,-121.8792098,black,NA,TRUE,FALSE,arrest,TRUE,TRUE,Vehicle Code Violation
2013-09-11,20:58:57,SENTER RD AND STORY RD,37.3258719,-121.865631,hispanic,pedestrian,FALSE,FALSE,NA,FALSE,TRUE,Muni Code Violation
2013-09-11,22:36:42,MONTEREY RD AND DAYLIGHT WY,37.2892768,-121.8468333,white,vehicular,FALSE,FALSE,NA,NA,FALSE,Vehicle Code Violation
2013-09-12,01:55:50,VIA FERRARI AND STORY RD,37.3341377,-121.8514126,hispanic,vehicular,FALSE,FALSE,NA,TRUE,TRUE,Vehicle Code Violation
2013-09-12,08:43:39,W MISSION ST AND N SAN PEDRO ST,37.349545,-121.904136,white,vehicular,FALSE,FALSE,NA,NA,FALSE,Vehicle Code Violation
2013-09-12,09:29:12,BYRON WY AND UNION AV,37.2659829,-121.9314799,asian/pacific islander,vehicular,FALSE,TRUE,citation,NA,NA,Consensual
2013-09-12,09:29:12,BYRON WY AND UNION AV,37.2659829,-121.9314799,black,vehicular,FALSE,TRUE,citation,FALSE,TRUE,Vehicle Code Violation
2013-09-12,16:07:17,NA,NA,NA,hispanic,vehicular,FALSE,TRUE,citation,NA,FALSE,Vehicle Code Violation
2013-09-12,17:32:59,NA,NA,NA,white,vehicular,FALSE,FALSE,NA,NA,FALSE,Vehicle Code Violation
2013-09-12,18:27:49,MURTHA DR AND S CAPITOL AV,37.3477819,-121.8246159,hispanic,vehicular,FALSE,FALSE,NA,NA,FALSE,Vehicle Code Violation
2013-09-12,19:23:30,10262 MURTHA DR,37.3532263,-121.8155578,hispanic,vehicular,TRUE,FALSE,arrest,FALSE,TRUE,Vehicle Code Violation
2013-09-12,20:12:48,CAS DR AND EZIE ST,37.2841519,-121.8313325,white,vehicular,FALSE,FALSE,NA,NA,FALSE,Vehicle Code Violation
2013-09-12,20:54:30,WILLOW ST AND BIRD AV,37.3110781,-121.8959357,hispanic,vehicular,FALSE,TRUE,citation,NA,FALSE,Vehicle Code Violation
2013-09-12,21:14:38,W SAN CARLOS ST AND RACE ST,37.3234443,-121.9113905,white,vehicular,FALSE,TRUE,citation,FALSE,TRUE,Vehicle Code Violation
2013-09-12,22:44:25,STEVENS CREEK BL AND N WINCHESTER BL,37.3232674,-121.9500318,white,vehicular,FALSE,FALSE,NA,NA,FALSE,Vehicle Code Violation
2013-09-12,22:55:54,TISCH WY AND S WINCHESTER BL,37.3173025,-121.9500432,other,vehicular,FALSE,FALSE,NA,NA,FALSE,Vehicle Code Violation
2013-09-12,22:56:14,E ALMA AV AND MONTEREY RD,37.3163813,-121.8740209,white,vehicular,FALSE,FALSE,NA,NA,FALSE,Vehicle Code Violation
2013-09-12,23:07:01,SARATOGA AV AND ATHERTON AV,37.2950932,-121.9883039,black,vehicular,FALSE,FALSE,NA,FALSE,TRUE,Vehicle Code Violation
2013-09-12,23:07:01,SARATOGA AV AND ATHERTON AV,37.2950932,-121.9883039,white,vehicular,FALSE,FALSE,NA,FALSE,TRUE,Vehicle Code Violation
2013-09-13,01:40:34,S MARKET ST AND W SAN CARLOS ST,37.3309105,-121.8885294,hispanic,vehicular,TRUE,FALSE,arrest,NA,FALSE,Vehicle Code Violation
2013-09-13,07:15:36,LEIGH AV AND MOORPARK AV,37.316418,-121.9237794,other,NA,FALSE,TRUE,citation,NA,FALSE,NA
2013-09-13,07:15:36,LEIGH AV AND MOORPARK AV,37.316418,-121.9237794,NA,NA,FALSE,TRUE,citation,NA,FALSE,NA
2013-09-13,10:04:44,1030 MCLAUGHLIN AV,37.3337432,-121.8542596,hispanic,vehicular,FALSE,TRUE,citation,FALSE,TRUE,Vehicle Code Violation
2013-09-13,10:10:06,NA,NA,NA,white,vehicular,FALSE,TRUE,citation,FALSE,TRUE,Vehicle Code Violation
2013-09-13,13:16:01,W CAMPBELL AV AND SAN TOMAS EX,37.29408,-121.957481,hispanic,vehicular,FALSE,TRUE,citation,FALSE,TRUE,Vehicle Code Violation
2013-09-13,17:31:13,S 3RD ST AND E VIRGINIA ST,37.3250659,-121.8794773,hispanic,vehicular,FALSE,TRUE,citation,FALSE,TRUE,Vehicle Code Violation
2013-09-13,18:26:42,SOUTHSIDE DR AND WALL ST,37.2903548,-121.8410668,hispanic,vehicular,FALSE,FALSE,NA,NA,FALSE,Vehicle Code Violation
2013-09-13,19:25:19,S 7TH ST AND E REED ST,37.3301083,-121.8774402,hispanic,pedestrian,FALSE,FALSE,NA,FALSE,TRUE,Vehicle Code Violation
2013-09-13,21:31:22,N 4TH ST AND E EMPIRE ST,37.3463106,-121.8938507,white,vehicular,FALSE,FALSE,NA,NA,FALSE,Vehicle Code Violation
2013-09-13,21:55:16,MONTEREY RD AND PHELAN AV,37.3112879,-121.8689544,black,pedestrian,FALSE,FALSE,NA,NA,FALSE,Vehicle Code Violation
2013-09-13,22:20:10,MARTEN AV AND MT PLEASANT RD,37.3505998,-121.7970532,hispanic,pedestrian,FALSE,FALSE,NA,FALSE,TRUE,Vehicle Code Violation
2013-09-13,23:00:35,LITTLE ORCHARD ST AND CURTNER AV,37.3001003,-121.866632,hispanic,vehicular,FALSE,FALSE,NA,FALSE,TRUE,Muni Code Violation
2013-09-14,00:17:45,W SAN CARLOS ST AND ALMADEN BL,37.3294884,-121.891477,white,vehicular,FALSE,FALSE,NA,NA,FALSE,Vehicle Code Violation
2013-09-14,02:29:24,LEEWARD DR AND ARDEN WY,37.3450785,-121.8274119,hispanic,pedestrian,FALSE,FALSE,NA,FALSE,TRUE,Vehicle Code Violation
2013-09-14,02:51:46,ABORN RD AND S WHITE RD,37.3140543,-121.7915396,hispanic,vehicular,FALSE,FALSE,NA,NA,FALSE,Vehicle Code Violation
2013-09-14,10:33:42,463 WOOSTER AV,37.3541798,-121.8727599,black,pedestrian,TRUE,FALSE,arrest,TRUE,TRUE,Vehicle Code Violation
2013-09-14,12:54:23,MASTIC ST AND W ALMA AV,37.314908,-121.8761166,hispanic,vehicular,FALSE,TRUE,citation,NA,FALSE,Vehicle Code Violation
2013-09-14,15:52:56,769 PELLEAS LN,37.3863755,-121.8388472,hispanic,pedestrian,FALSE,FALSE,NA,FALSE,TRUE,Consensual
2013-09-14,15:58:39,NA,NA,NA,hispanic,vehicular,FALSE,FALSE,NA,NA,FALSE,Vehicle Code Violation
2013-09-14,16:05:27,E ST JOHN ST AND N 6TH ST,37.3401909,-121.8863555,hispanic,pedestrian,FALSE,FALSE,NA,FALSE,TRUE,Vehicle Code Violation
2013-09-14,17:19:46,BERING DR AND E BROKAW RD,37.3756531,-121.9156906,hispanic,vehicular,FALSE,FALSE,NA,FALSE,TRUE,Vehicle Code Violation
2013-09-14,21:57:23,833 N 15TH ST,NA,NA,NA,NA,FALSE,FALSE,NA,NA,FALSE,NA
2013-09-15,02:25:19,E SANTA CLARA ST AND N 2ND ST,37.3366932,-121.8895012,hispanic,vehicular,TRUE,FALSE,arrest,NA,FALSE,Vehicle Code Violation
2013-09-15,03:54:47,2460 FONTAINE RD,37.3179634,-121.8293496,black,pedestrian,TRUE,FALSE,arrest,TRUE,TRUE,Consensual
2013-09-15,04:07:11,HOSTETTER RD AND N CAPITOL AV,37.3968127,-121.8717374,hispanic,NA,TRUE,FALSE,arrest,FALSE,TRUE,Vehicle Code Violation
2013-09-15,05:11:22,1692 TULLY RD,37.3204484,-121.8263244,asian/pacific islander,pedestrian,TRUE,FALSE,arrest,TRUE,TRUE,Consensual
2013-09-15,09:59:47,POST ST AND S SAN PEDRO ST,37.3342127,-121.8922163,white,pedestrian,FALSE,TRUE,citation,NA,FALSE,Muni Code Violation
2013-09-15,15:00:59,N 1ST ST AND E GISH RD,37.3617915,-121.9095366,hispanic,pedestrian,TRUE,FALSE,arrest,TRUE,TRUE,Vehicle Code Violation
2013-09-15,15:00:59,N 1ST ST AND E GISH RD,37.3617915,-121.9095366,other,pedestrian,TRUE,FALSE,arrest,TRUE,TRUE,Vehicle Code Violation
2013-09-15,15:04:32,THE ALAMEDA AND HESTER AV,37.3335861,-121.9145256,hispanic,pedestrian,FALSE,FALSE,NA,FALSE,TRUE,Vehicle Code Violation
2013-09-15,16:38:30,5710 TUCSON DR,37.2474214,-121.8759623,other,pedestrian,FALSE,FALSE,NA,NA,NA,NA
2013-09-15,16:47:53,E GISH RD AND N 1ST ST,37.3617915,-121.9095366,other,pedestrian,FALSE,FALSE,NA,FALSE,TRUE,Vehicle Code Violation
2013-09-15,16:47:53,E GISH RD AND N 1ST ST,37.3617915,-121.9095366,white,pedestrian,FALSE,FALSE,NA,FALSE,TRUE,Vehicle Code Violation
2013-09-15,17:34:24,ALEXANDER AV AND ALEXANDER CT,37.3629045,-121.8398406,asian/pacific islander,vehicular,FALSE,FALSE,NA,NA,FALSE,Vehicle Code Violation
2013-09-15,18:37:23,COMMERCIAL ST AND N 10TH ST,37.3621649,-121.8970554,hispanic,pedestrian,FALSE,FALSE,NA,FALSE,TRUE,Vehicle Code Violation
2013-09-15,19:29:05,COTTLE RD AND SANTA TERESA BL,37.2370677,-121.8039365,white,vehicular,FALSE,TRUE,citation,NA,FALSE,Vehicle Code Violation
2013-09-15,23:44:06,S BASCOM AV AND SCOTT ST,37.3198524,-121.9317986,white,pedestrian,FALSE,FALSE,NA,TRUE,TRUE,Vehicle Code Violation
2013-09-16,02:21:00,FONTAINE RD AND ALVIN AV,37.3195095,-121.8279186,other,vehicular,FALSE,FALSE,NA,FALSE,TRUE,Vehicle Code Violation
2013-09-16,09:34:24,S KING RD AND OCALA AV,37.3310375,-121.8344692,hispanic,pedestrian,TRUE,FALSE,arrest,TRUE,TRUE,Vehicle Code Violation
2013-09-16,13:42:29,5300 TERNER LN,NA,NA,white,NA,FALSE,FALSE,NA,NA,FALSE,Muni Code Violation
2013-09-16,15:47:08,N JACKSON AV AND MCKEE RD,37.365241,-121.850014,asian/pacific islander,pedestrian,FALSE,FALSE,NA,FALSE,TRUE,Vehicle Code Violation
2013-09-16,19:28:05,RUFF DR AND W HEDDING ST,37.3490641,-121.911219,black,pedestrian,TRUE,FALSE,arrest,TRUE,TRUE,Vehicle Code Violation
2013-09-16,19:28:05,RUFF DR AND W HEDDING ST,37.3490641,-121.911219,white,pedestrian,TRUE,FALSE,arrest,TRUE,TRUE,Vehicle Code Violation
2013-09-16,19:42:42,PATTERSON ST AND S 3RD ST,37.325831,-121.8800471,other,vehicular,FALSE,FALSE,NA,FALSE,TRUE,Vehicle Code Violation
2013-09-16,21:56:38,N 2ND ST AND E SANTA CLARA ST,37.3366932,-121.8895012,white,pedestrian,FALSE,FALSE,NA,FALSE,TRUE,Vehicle Code Violation
2013-09-17,00:54:23,S CAPITOL AV AND FLORENCE AV,37.359535,-121.833224,hispanic,vehicular,FALSE,FALSE,NA,FALSE,TRUE,BOL/APB/Watch Bulletin
2013-09-17,09:08:40,OCALA AV AND BERMUDA WY,37.3320996,-121.8331299,hispanic,NA,TRUE,FALSE,arrest,FALSE,TRUE,Consensual
2013-09-17,10:41:31,MT PLEASANT RD AND CLAYTON RD,37.3555664,-121.8006135,asian/pacific islander,vehicular,FALSE,FALSE,NA,NA,FALSE,Vehicle Code Violation
2013-09-17,10:51:46,N JACKSON AV AND RINEHART DR,37.3669745,-121.8517507,hispanic,NA,TRUE,FALSE,arrest,NA,FALSE,Consensual
2013-09-17,15:41:13,N MARKET ST AND COLEMAN AV,NA,NA,white,vehicular,FALSE,FALSE,NA,NA,FALSE,Vehicle Code Violation
2013-09-17,16:17:41,NA,NA,NA,white,vehicular,FALSE,TRUE,citation,NA,FALSE,Vehicle Code Violation
2013-09-17,16:24:58,OCALA AV AND RIDGEMONT DR,37.3433185,-121.8123016,hispanic,vehicular,FALSE,FALSE,NA,FALSE,TRUE,Vehicle Code Violation
2013-09-17,16:37:07,W SAN CARLOS ST AND N BUENA VISTA AV,37.3234002,-121.9189144,hispanic,vehicular,FALSE,TRUE,citation,FALSE,TRUE,Vehicle Code Violation
2013-09-17,17:47:10,S 9TH ST AND E REED ST,37.3311315,-121.8753483,hispanic,pedestrian,TRUE,FALSE,arrest,FALSE,TRUE,Consensual
2013-09-17,18:20:38,MERIDIAN AV AND HAMILTON AV,37.2944361,-121.9136179,NA,vehicular,FALSE,FALSE,NA,NA,FALSE,NA
2013-09-17,18:47:50,MONTEREY RD AND OLD TULLY RD,37.3006717,-121.858375,NA,NA,FALSE,FALSE,NA,NA,FALSE,NA
2013-09-17,18:48:01,CRUCERO DR AND DUBERT LN,37.3295814,-121.8435059,NA,pedestrian,FALSE,FALSE,NA,NA,FALSE,NA
2013-09-17,18:57:47,MONTEREY RD AND SOUTHSIDE DR,37.2874659,-121.8452498,NA,vehicular,FALSE,TRUE,citation,NA,FALSE,NA
2013-09-17,20:22:11,NA,NA,NA,NA,vehicular,FALSE,FALSE,NA,NA,FALSE,NA
2013-09-17,21:24:31,STORY RD AND VIA FERRARI,37.3341377,-121.8514126,hispanic,NA,TRUE,FALSE,arrest,TRUE,TRUE,Vehicle Code Violation
2013-09-17,22:36:54,SNELL AV AND HILLCAP AV,37.2783955,-121.8433657,hispanic,pedestrian,FALSE,FALSE,NA,FALSE,TRUE,Vehicle Code Violation
2013-09-17,22:48:01,GALVESTON AV AND WARFIELD WY,37.3127726,-121.8414575,asian/pacific islander,pedestrian,FALSE,TRUE,citation,FALSE,TRUE,Vehicle Code Violation
2013-09-17,23:13:36,MONTEREY RD AND E ALMA AV,37.3163813,-121.8740209,black,NA,TRUE,FALSE,arrest,FALSE,TRUE,Vehicle Code Violation
2013-09-18,00:32:19,STORY RD AND BAL HARBOR WY,37.3418355,-121.8404165,hispanic,vehicular,TRUE,FALSE,arrest,FALSE,TRUE,Vehicle Code Violation
2013-09-18,00:42:13,E CAPITOL EX AND SENTER RD,37.2934315,-121.8331233,hispanic,vehicular,FALSE,FALSE,NA,NA,FALSE,Vehicle Code Violation
2013-09-18,01:04:06,HELLYER AV AND PALISADE DR,37.2841724,-121.8143303,asian/pacific islander,pedestrian,FALSE,TRUE,citation,TRUE,TRUE,Vehicle Code Violation
2013-09-18,01:19:22,FURLONG DR AND WINFIELD BL,37.245905,-121.8684172,hispanic,pedestrian,FALSE,TRUE,citation,FALSE,TRUE,Muni Code Violation
2013-09-18,01:36:46,SENTER RD AND UMBARGER RD,37.3020165,-121.8418244,asian/pacific islander,pedestrian,FALSE,FALSE,NA,NA,NA,Consensual
2013-09-18,04:11:46,BLOSSOM HILL RD AND SHADOWCREST WY,37.2506703,-121.8443759,white,pedestrian,FALSE,FALSE,NA,FALSE,TRUE,Consensual
2013-09-18,08:29:13,NA,NA,NA,NA,NA,FALSE,TRUE,citation,NA,FALSE,NA
2013-09-18,08:35:23,N 1ST ST AND E YOUNGER AV,37.3551532,-121.9046469,asian/pacific islander,vehicular,FALSE,TRUE,citation,NA,FALSE,Vehicle Code Violation
2013-09-18,08:44:51,S 1ST ST AND E VIRGINIA ST,37.3240645,-121.88158,asian/pacific islander,vehicular,FALSE,TRUE,citation,NA,FALSE,Vehicle Code Violation
2013-09-18,10:41:35,MARSH ST AND S KING RD,37.3380812,-121.8412611,NA,vehicular,FALSE,FALSE,NA,NA,FALSE,NA
2013-09-18,10:57:52,HILLSDALE AV AND ROSS AV,37.2635447,-121.9167358,other,NA,FALSE,TRUE,citation,NA,NA,NA
2013-09-18,10:57:52,HILLSDALE AV AND ROSS AV,37.2635447,-121.9167358,other,NA,FALSE,TRUE,citation,NA,NA,NA
2013-09-18,10:57:52,HILLSDALE AV AND ROSS AV,37.2635447,-121.9167358,other,NA,FALSE,TRUE,citation,NA,NA,NA
2013-09-18,12:11:58,FOUNTAIN AL AND S 2ND ST,37.3362276,-121.8891536,white,pedestrian,FALSE,TRUE,citation,FALSE,TRUE,Vehicle Code Violation
2013-09-18,13:38:00,SNELL WY AND CHEYENNE LN,37.2454074,-121.8308374,other,pedestrian,FALSE,FALSE,NA,NA,NA,NA
2013-09-18,15:39:23,STORY RD AND LEEWARD DR,37.348434,-121.8306668,hispanic,pedestrian,FALSE,TRUE,citation,NA,FALSE,Vehicle Code Violation
2013-09-18,18:25:24,VIA DEL ORO VTA LOT,NA,NA,other,pedestrian,FALSE,FALSE,NA,NA,NA,NA
2013-09-18,18:30:12,NA,NA,NA,hispanic,pedestrian,FALSE,FALSE,NA,FALSE,TRUE,Vehicle Code Violation
2013-09-18,18:31:35,E REED ST AND S 11TH ST,37.3320527,-121.8732226,black,vehicular,FALSE,FALSE,NA,NA,FALSE,Vehicle Code Violation
2013-09-18,18:41:42,FONTAINE RD AND ALVIN AV,37.3195095,-121.8279186,hispanic,vehicular,FALSE,FALSE,NA,FALSE,TRUE,Vehicle Code Violation
2013-09-18,18:48:32,WOOL CREEK NEAR SHIRAKAWA ELEM,37.3149339,-121.849173,hispanic,pedestrian,FALSE,FALSE,NA,FALSE,TRUE,Vehicle Code Violation
2013-09-18,18:53:58,E SAN ANTONIO ST AND BONITA AV,37.3458326,-121.8605731,hispanic,vehicular,FALSE,FALSE,NA,FALSE,TRUE,Vehicle Code Violation
2013-09-18,18:53:58,E SAN ANTONIO ST AND BONITA AV,37.3458326,-121.8605731,NA,vehicular,FALSE,FALSE,NA,NA,FALSE,NA
2013-09-18,19:00:32,PLATA ARROYO PARK,37.357319,-121.8587517,hispanic,pedestrian,FALSE,FALSE,NA,NA,FALSE,Muni Code Violation
2013-09-18,19:01:15,THE ALAMEDA AND WHITE ST,37.3318161,-121.9038195,hispanic,vehicular,FALSE,TRUE,citation,FALSE,TRUE,Vehicle Code Violation
2013-09-18,20:05:14,STORY RD AND LEEWARD DR,37.348434,-121.8306668,hispanic,vehicular,FALSE,FALSE,NA,FALSE,TRUE,Vehicle Code Violation
2013-09-18,20:57:08,ADRIAN WY AND AMADOR DR,37.345283,-121.8334956,hispanic,vehicular,FALSE,FALSE,NA,FALSE,TRUE,Vehicle Code Violation
2013-09-18,21:33:30,S WINCHESTER BL AND E ROSEMARY LN,37.2952828,-121.9498343,white,vehicular,FALSE,FALSE,NA,FALSE,TRUE,Vehicle Code Violation
2013-09-18,23:00:28,209 N 17TH ST,37.3468832,-121.8769826,hispanic,pedestrian,TRUE,FALSE,arrest,FALSE,TRUE,Vehicle Code Violation
2013-09-18,23:00:44,NA,NA,NA,asian/pacific islander,vehicular,FALSE,FALSE,NA,FALSE,TRUE,Vehicle Code Violation
2013-09-19,01:59:27,OCALA AV AND ORLANDO DR,37.331634,-121.833817,other,pedestrian,FALSE,FALSE,NA,FALSE,TRUE,Vehicle Code Violation
2013-09-19,08:53:13,MOORPARK AV AND LEIGH AV,37.316418,-121.9237794,other,NA,FALSE,TRUE,citation,NA,NA,NA
2013-09-19,08:53:13,MOORPARK AV AND LEIGH AV,37.316418,-121.9237794,other,NA,FALSE,TRUE,citation,NA,NA,NA
2013-09-19,09:15:32,196 CHECKERS DR,NA,NA,hispanic,NA,TRUE,FALSE,arrest,TRUE,TRUE,Consensual
2013-09-19,13:57:51,SILVER CREEK RD AND E CAPITOL EX,37.3071176,-121.8107101,white,vehicular,FALSE,TRUE,citation,NA,FALSE,Vehicle Code Violation
2013-09-19,16:20:24,N 1ST ST AND COMPONENT DR,37.3828707,-121.9252553,hispanic,vehicular,FALSE,FALSE,NA,FALSE,TRUE,Vehicle Code Violation
2013-09-19,16:25:49,GREAT OAKS BL AND SAN IGNACIO AV,37.2354728,-121.7773941,hispanic,pedestrian,FALSE,FALSE,NA,FALSE,TRUE,Vehicle Code Violation
2013-09-19,16:28:42,N 1ST ST AND E BROKAW RD,37.3733655,-121.9182131,white,vehicular,FALSE,FALSE,NA,NA,FALSE,Vehicle Code Violation
2013-09-19,16:45:13,6199 SAN IGNACIO AV,37.2349183,-121.7752401,hispanic,pedestrian,FALSE,FALSE,NA,FALSE,TRUE,Consensual
2013-09-19,16:46:25,NA,NA,NA,hispanic,vehicular,FALSE,FALSE,NA,FALSE,TRUE,Vehicle Code Violation
2013-09-19,17:00:49,NA,NA,NA,hispanic,vehicular,FALSE,TRUE,citation,FALSE,TRUE,Vehicle Code Violation
2013-09-19,17:43:47,NA,NA,NA,hispanic,NA,TRUE,FALSE,arrest,FALSE,TRUE,Vehicle Code Violation
2013-09-19,17:45:05,MONTEREY FROM BLOSSOM HILL RP AND BLOSSOM HILL RD,NA,NA,white,pedestrian,FALSE,FALSE,NA,FALSE,TRUE,Vehicle Code Violation
2013-09-19,21:52:17,1650 OLD BAYSHORE HY,37.3688375,-121.9053965,asian/pacific islander,pedestrian,FALSE,TRUE,citation,NA,FALSE,Vehicle Code Violation
2013-09-19,22:39:55,E MISSION ST AND N 12TH ST,37.35669,-121.8902611,other,pedestrian,FALSE,FALSE,NA,NA,NA,Vehicle Code Violation
2013-09-19,22:41:29,N CENTRAL AV AND WESTFIELD AV,37.3052051,-121.9431667,hispanic,pedestrian,FALSE,FALSE,NA,FALSE,TRUE,Consensual
2013-09-19,23:58:11,N 6TH ST AND E EMPIRE ST,37.3473472,-121.8917027,black,vehicular,TRUE,FALSE,arrest,FALSE,TRUE,Vehicle Code Violation
2013-09-20,00:20:19,RICHDALE AV AND EZIE ST,37.2854831,-121.829421,NA,vehicular,FALSE,FALSE,NA,NA,FALSE,NA
2013-09-20,00:44:31,WINFIELD BL AND BLOSSOM HILL RD,37.2503327,-121.8666347,hispanic,vehicular,TRUE,FALSE,arrest,TRUE,TRUE,Vehicle Code Violation
2013-09-20,00:44:31,WINFIELD BL AND BLOSSOM HILL RD,37.2503327,-121.8666347,hispanic,vehicular,TRUE,FALSE,arrest,FALSE,TRUE,Vehicle Code Violation
2013-09-20,01:14:39,BLOSSOM HILL RD AND JUDITH ST,37.2513324,-121.8250776,hispanic,vehicular,FALSE,TRUE,citation,FALSE,TRUE,Vehicle Code Violation
2013-09-20,01:22:07,NORTECH PY AND DISK CT,37.4236175,-121.9604221,hispanic,vehicular,FALSE,TRUE,citation,FALSE,TRUE,Vehicle Code Violation
2013-09-20,02:23:40,BUENA LUNA CT AND BORELLO DR,37.2961519,-121.9364176,other,pedestrian,FALSE,FALSE,NA,NA,NA,NA
2013-09-20,08:21:26,85 NB S OF ALMADEN,NA,NA,white,vehicular,FALSE,TRUE,citation,NA,FALSE,Vehicle Code Violation
2013-09-20,08:39:16,NA,NA,NA,NA,vehicular,FALSE,TRUE,citation,NA,FALSE,NA
2013-09-20,16:39:45,N 1ST ST AND E SANTA CLARA ST,37.3361554,-121.8906261,NA,NA,FALSE,FALSE,NA,NA,FALSE,NA
2013-09-20,18:25:22,2117 OCALA AV,37.3361941,-121.8276813,hispanic,pedestrian,FALSE,FALSE,NA,FALSE,TRUE,Vehicle Code Violation
2013-09-20,19:24:11,N CAPITOL AV AND MUELLER AV,37.3675449,-121.840671,hispanic,vehicular,FALSE,TRUE,citation,FALSE,TRUE,Vehicle Code Violation
2013-09-20,21:28:51,KEYES ST AND SENTER RD,37.3256773,-121.8656671,hispanic,pedestrian,FALSE,FALSE,NA,FALSE,TRUE,Vehicle Code Violation
2013-09-20,21:41:07,PENITENCIA CREEK RD AND KYLE ST,37.3890755,-121.8462599,hispanic,pedestrian,FALSE,FALSE,NA,TRUE,TRUE,Vehicle Code Violation
2013-09-20,22:06:45,NA,NA,NA,black,pedestrian,FALSE,TRUE,citation,NA,FALSE,Muni Code Violation
2013-09-20,22:40:32,N 33RD ST AND ALUM ROCK AV,37.3511907,-121.8590964,hispanic,pedestrian,FALSE,FALSE,NA,FALSE,TRUE,BOL/APB/Watch Bulletin
2013-09-20,22:50:08,NA,NA,NA,hispanic,pedestrian,TRUE,FALSE,arrest,FALSE,TRUE,Muni Code Violation
2013-09-20,23:13:56,S KING RD AND ABORN RD,37.3102305,-121.8134273,asian/pacific islander,pedestrian,TRUE,FALSE,arrest,TRUE,TRUE,Vehicle Code Violation
2013-09-20,23:13:56,S KING RD AND ABORN RD,37.3102305,-121.8134273,black,pedestrian,TRUE,FALSE,arrest,FALSE,TRUE,Vehicle Code Violation
2013-09-20,23:19:52,STORY RD AND HOPKINS DR,37.3437049,-121.8376277,hispanic,pedestrian,FALSE,FALSE,NA,FALSE,TRUE,Vehicle Code Violation
2013-09-21,02:50:50,1740 N 1ST ST,37.3695662,-121.9136476,white,pedestrian,FALSE,FALSE,NA,FALSE,TRUE,Consensual
2013-09-21,04:05:24,E SAN FERNANDO ST AND S KING RD,37.3512855,-121.8540963,hispanic,vehicular,FALSE,FALSE,NA,NA,FALSE,Vehicle Code Violation
2013-09-21,09:13:47,LANAI AV AND TOLBERT DR,37.3224184,-121.83084,hispanic,pedestrian,FALSE,FALSE,NA,NA,FALSE,Consensual
2013-09-21,09:46:59,MONTEREY RD AND SOUTHLAKE DR,37.2440875,-121.7829591,hispanic,vehicular,FALSE,TRUE,citation,FALSE,TRUE,Vehicle Code Violation
2013-09-21,17:08:09,SNELL AV AND W CAPITOL EX,37.2768493,-121.8419289,white,vehicular,FALSE,FALSE,NA,FALSE,TRUE,Vehicle Code Violation
2013-09-21,17:12:40,TULLY RD AND MONTEREY RD,37.3036263,-121.8610665,hispanic,vehicular,FALSE,FALSE,NA,NA,FALSE,Vehicle Code Violation
2013-09-21,17:22:09,MONTEREY RD AND E ALMA AV,37.3163813,-121.8740209,hispanic,NA,TRUE,FALSE,arrest,FALSE,TRUE,Consensual
2013-09-21,17:26:56,E JULIAN ST AND N 24TH ST,37.3508246,-121.8715023,hispanic,NA,TRUE,FALSE,arrest,FALSE,TRUE,Consensual
2013-09-21,17:35:06,E JULIAN ST AND N 24TH ST,37.3508246,-121.8715023,hispanic,vehicular,FALSE,TRUE,citation,FALSE,TRUE,Vehicle Code Violation
2013-09-21,17:42:52,EAST HILLS DR AND GUNN CT,37.3661718,-121.81906,hispanic,vehicular,FALSE,FALSE,NA,NA,FALSE,Vehicle Code Violation
2013-09-21,18:05:16,ALUM ROCK AV AND N WHITE RD,37.3658033,-121.8279902,asian/pacific islander,vehicular,FALSE,FALSE,NA,NA,FALSE,Vehicle Code Violation
2013-09-21,20:04:22,N 17TH ST AND BERRYESSA RD,37.3621164,-121.8880009,hispanic,vehicular,FALSE,FALSE,NA,NA,FALSE,Vehicle Code Violation
2013-09-21,20:18:07,E WILLIAM ST AND S 5TH ST,37.3306009,-121.8806839,black,pedestrian,FALSE,FALSE,NA,FALSE,TRUE,Consensual
2013-09-21,20:57:26,SANTA TERESA BL AND CAMINO VERDE DR,37.2370797,-121.8010961,hispanic,vehicular,FALSE,FALSE,NA,FALSE,TRUE,Vehicle Code Violation
2013-09-21,22:46:26,INDUSTRIAL AV AND KINGS ROW,37.3711016,-121.9004297,hispanic,vehicular,FALSE,FALSE,NA,FALSE,TRUE,Vehicle Code Violation
2013-09-21,23:18:30,INDUSTRIAL AV AND KINGS ROW,37.3711016,-121.9004297,white,pedestrian,TRUE,FALSE,arrest,TRUE,TRUE,Vehicle Code Violation
2013-09-21,23:49:39,HOME GATE DR AND HOME CREST DR,NA,NA,black,vehicular,TRUE,FALSE,arrest,NA,NA,Vehicle Code Violation
2013-09-21,23:49:39,HOME GATE DR AND HOME CREST DR,NA,NA,hispanic,vehicular,TRUE,FALSE,arrest,NA,NA,Vehicle Code Violation
2013-09-22,01:00:22,W CAPITOL EX AND SNELL AV,37.2768493,-121.8419289,asian/pacific islander,vehicular,FALSE,FALSE,NA,FALSE,TRUE,Vehicle Code Violation
2013-09-22,01:13:50,E TAYLOR ST AND N 11TH ST,37.3541108,-121.8896426,hispanic,vehicular,FALSE,TRUE,citation,NA,FALSE,Vehicle Code Violation
2013-09-22,01:49:10,E TAYLOR ST AND N 10TH ST,37.3536295,-121.8906532,hispanic,pedestrian,TRUE,FALSE,arrest,TRUE,TRUE,Muni Code Violation
2013-09-22,01:52:11,S 1ST ST AND E SAN CARLOS ST,37.3314516,-121.8870802,black,vehicular,FALSE,TRUE,citation,FALSE,TRUE,Vehicle Code Violation
2013-09-22,01:52:11,S 1ST ST AND E SAN CARLOS ST,37.3314516,-121.8870802,white,vehicular,FALSE,TRUE,citation,NA,FALSE,Vehicle Code Violation
2013-09-22,02:33:24,S KING RD AND OCALA AV,37.3310375,-121.8344692,NA,vehicular,FALSE,FALSE,NA,NA,FALSE,NA
2013-09-22,02:42:04,BLOSSOM HILL RD AND EAGLES LN,37.2513616,-121.8218284,black,pedestrian,TRUE,FALSE,arrest,FALSE,TRUE,Vehicle Code Violation
2013-09-22,02:48:16,NA,NA,NA,NA,vehicular,FALSE,FALSE,NA,NA,FALSE,NA
2013-09-22,03:06:03,BLOSSOM HILL RD AND SANTA TERESA BL,37.2502831,-121.8589817,hispanic,pedestrian,FALSE,FALSE,NA,FALSE,TRUE,Consensual
2013-09-22,15:39:05,PARK PAXTON PL AND SKYWAY DR,37.2711722,-121.8304888,hispanic,pedestrian,FALSE,FALSE,NA,NA,FALSE,Vehicle Code Violation
2013-09-22,16:43:21,NA,NA,NA,hispanic,pedestrian,FALSE,TRUE,citation,FALSE,TRUE,Vehicle Code Violation
2013-09-22,16:55:42,CAP OVER MONTEREY,NA,NA,hispanic,pedestrian,FALSE,FALSE,NA,NA,FALSE,Vehicle Code Violation
2013-09-22,18:35:28,3408 HILLCAP AV,37.2821767,-121.843718,hispanic,vehicular,FALSE,FALSE,NA,NA,FALSE,Muni Code Violation
2013-09-22,19:18:57,MONTEREY RD AND FEHREN DR,37.2840483,-121.8415311,hispanic,pedestrian,FALSE,FALSE,NA,NA,FALSE,Vehicle Code Violation
2013-09-22,22:05:29,JACKSON ST AND N 12TH ST,37.3524231,-121.8870692,hispanic,pedestrian,FALSE,FALSE,NA,FALSE,TRUE,Consensual
2013-09-22,22:29:46,OCALA AV AND ORLANDO DR,37.331634,-121.833817,hispanic,pedestrian,TRUE,FALSE,arrest,TRUE,TRUE,Vehicle Code Violation
2013-09-22,23:18:57,N 26TH ST AND E JULIAN ST,37.3519256,-121.8698691,hispanic,vehicular,FALSE,FALSE,NA,FALSE,TRUE,Vehicle Code Violation
2013-09-22,23:26:40,SCOTT ST AND RAYMOND AV,37.3198631,-121.9284531,hispanic,vehicular,FALSE,TRUE,citation,TRUE,TRUE,Vehicle Code Violation
2013-09-22,23:46:22,KEYES ST AND S 5TH ST,37.3217081,-121.8740818,hispanic,pedestrian,FALSE,FALSE,NA,FALSE,TRUE,BOL/APB/Watch Bulletin
2013-09-23,00:13:14,E TAYLOR ST AND N 4TH ST,37.3505911,-121.897029,hispanic,pedestrian,FALSE,FALSE,NA,FALSE,TRUE,Muni Code Violation
2013-09-23,01:07:08,N 3RD ST AND E ST JOHN ST,37.3386574,-121.8895975,hispanic,pedestrian,FALSE,TRUE,citation,NA,FALSE,Vehicle Code Violation
2013-09-23,01:40:32,E SAN SALVADOR ST AND S 3RD ST,37.3310182,-121.8839231,white,pedestrian,FALSE,TRUE,citation,FALSE,TRUE,Vehicle Code Violation
2013-09-23,11:18:42,FRUITDALE AV AND DEL MAR AV,37.3106938,-121.9304676,hispanic,pedestrian,FALSE,FALSE,NA,FALSE,TRUE,Muni Code Violation
2013-09-23,12:03:10,BLOSSOM AV AND CHOCTAW DR,37.2357023,-121.840125,hispanic,vehicular,TRUE,FALSE,arrest,FALSE,TRUE,Vehicle Code Violation
2013-09-23,16:36:47,N 18TH ST AND JACKSON ST,NA,NA,other,pedestrian,FALSE,FALSE,NA,NA,FALSE,Vehicle Code Violation
2013-09-23,17:23:35,LUBY DR AND RIPLEY DR,37.3635161,-121.8610621,asian/pacific islander,pedestrian,FALSE,TRUE,citation,FALSE,TRUE,Muni Code Violation
2013-09-23,17:34:36,SHORTRIDGE AV AND S 34TH ST,37.351133,-121.8566723,hispanic,pedestrian,FALSE,FALSE,NA,FALSE,TRUE,Vehicle Code Violation
2013-09-23,17:45:20,N 17TH ST AND E SANTA CLARA ST,37.3438629,-121.8743542,hispanic,vehicular,FALSE,FALSE,NA,NA,FALSE,Vehicle Code Violation
2013-09-23,18:04:39,BARNARD AV AND MONTEREY RD,37.3108583,-121.8685245,black,pedestrian,TRUE,FALSE,arrest,FALSE,TRUE,Consensual
2013-09-23,21:37:22,STORY RD AND GALAHAD AV,37.3493964,-121.828977,hispanic,vehicular,TRUE,FALSE,arrest,TRUE,TRUE,Vehicle Code Violation
2013-09-23,22:57:26,MONTEREY RD AND STAUFFER BL,37.3084368,-121.8658788,hispanic,pedestrian,FALSE,FALSE,NA,NA,FALSE,Vehicle Code Violation
2013-09-23,22:59:25,BLOSSOM HILL RD AND HOFFMAN CT,37.2486417,-121.8818362,hispanic,pedestrian,FALSE,FALSE,NA,FALSE,TRUE,Vehicle Code Violation
2013-09-24,00:02:08,BLOSSOM HILL RD AND BESWICK DR,37.2512231,-121.8091491,white,pedestrian,FALSE,FALSE,NA,FALSE,TRUE,Vehicle Code Violation
2013-09-24,01:20:52,ALVIN AV AND BURDETTE DR,37.3193348,-121.8265004,other,pedestrian,FALSE,FALSE,NA,FALSE,TRUE,Vehicle Code Violation
2013-09-24,01:46:56,ASBURY ST AND WALNUT ST,37.3441422,-121.910709,hispanic,pedestrian,TRUE,FALSE,arrest,TRUE,TRUE,Consensual
2013-09-24,01:54:53,VIRGINIA AV AND S KING RD,37.3449234,-121.8478913,hispanic,vehicular,FALSE,FALSE,NA,FALSE,TRUE,Vehicle Code Violation
2013-09-24,06:46:32,STEVENS CREEK BL AND N MONROE ST,37.3234706,-121.9433907,other,NA,FALSE,TRUE,citation,NA,NA,NA
2013-09-24,07:17:46,MCLAUGHLIN AV AND GLENFINNAN DR,37.3220659,-121.8432531,asian/pacific islander,vehicular,FALSE,TRUE,citation,NA,FALSE,Vehicle Code Violation
2013-09-24,19:30:15,EASTRIDGE LP AND E CAPITOL EX,37.3266339,-121.8094728,asian/pacific islander,pedestrian,TRUE,FALSE,arrest,TRUE,TRUE,Vehicle Code Violation
2013-09-24,19:53:55,PHELAN AV AND MONTEREY RD,37.3112879,-121.8689544,asian/pacific islander,NA,TRUE,FALSE,arrest,FALSE,TRUE,Vehicle Code Violation
2013-09-24,23:18:51,SNOW DR AND GIUSTI DR,37.2668584,-121.8046192,white,pedestrian,TRUE,FALSE,arrest,TRUE,TRUE,Consensual
2013-09-25,04:24:20,ROUNDTABLE DR AND ROEDER RD,37.2608484,-121.8099328,white,NA,TRUE,FALSE,arrest,FALSE,TRUE,Consensual
2013-09-25,11:00:59,REXFORD WY AND DEL MAR AV,37.3119683,-121.93040740000001,hispanic,pedestrian,FALSE,FALSE,NA,FALSE,TRUE,Vehicle Code Violation
2013-09-25,11:40:55,NA,NA,NA,NA,NA,TRUE,FALSE,arrest,NA,FALSE,NA
2013-09-25,16:40:50,STORY RD AND MCGINNESS AV,37.35268,-121.8244083,asian/pacific islander,vehicular,FALSE,TRUE,citation,TRUE,TRUE,Vehicle Code Violation
2013-09-25,16:40:50,STORY RD AND MCGINNESS AV,37.35268,-121.8244083,white,vehicular,FALSE,TRUE,citation,TRUE,TRUE,Vehicle Code Violation
2013-09-25,17:06:14,E ROSEMARY ST AND N 1ST ST,37.360007,-121.9084608,other,pedestrian,FALSE,FALSE,NA,FALSE,TRUE,Vehicle Code Violation
2013-09-25,17:10:49,HARRISON AV AND PAYNE AV,37.3015572,-121.942515,NA,vehicular,FALSE,FALSE,NA,NA,FALSE,NA
2013-09-25,17:43:00,S SUNSET AV AND E SAN ANTONIO ST,37.3526711,-121.8468155,hispanic,vehicular,FALSE,FALSE,NA,FALSE,TRUE,Vehicle Code Violation
2013-09-25,18:33:37,LANDESS AV AND MORRILL AV,37.415961,-121.8750932,other,pedestrian,FALSE,FALSE,NA,FALSE,TRUE,Muni Code Violation
2013-09-25,18:33:37,LANDESS AV AND MORRILL AV,37.415961,-121.8750932,white,pedestrian,FALSE,FALSE,NA,FALSE,TRUE,Muni Code Violation
2013-09-25,19:01:09,ORLANDO DR AND OCALA AV,37.331634,-121.833817,asian/pacific islander,pedestrian,TRUE,FALSE,arrest,TRUE,TRUE,Vehicle Code Violation
2013-09-25,19:25:52,1330 FOXDALE LP,37.3452826,-121.824011,NA,pedestrian,FALSE,FALSE,NA,NA,FALSE,NA
2013-09-25,19:47:09,S KING RD AND STORY RD,37.3398099,-121.8431206,white,pedestrian,FALSE,FALSE,NA,NA,FALSE,Vehicle Code Violation
2013-09-25,20:55:13,OAKLAND RD AND E HEDDING ST,37.3593408,-121.8908773,hispanic,vehicular,FALSE,FALSE,NA,NA,FALSE,Vehicle Code Violation
2013-09-25,22:04:14,S KING RD AND TULLY RD,37.3223022,-121.8258629,hispanic,NA,TRUE,FALSE,arrest,TRUE,TRUE,Consensual
2013-09-25,22:18:45,S KING RD AND TULLY RD,37.3223022,-121.8258629,NA,pedestrian,FALSE,FALSE,NA,NA,FALSE,NA
2013-09-25,22:24:36,W ALMA AV AND SANBORN AV,37.3152118,-121.8756927,hispanic,pedestrian,FALSE,FALSE,NA,FALSE,TRUE,Consensual
2013-09-25,22:40:12,N 6TH ST AND WASHINGTON ST,37.3451624,-121.8900865,hispanic,vehicular,FALSE,FALSE,NA,NA,FALSE,Vehicle Code Violation
2013-09-25,22:58:02,373 17TH,37.349511,-121.8789639,other,vehicular,FALSE,FALSE,NA,NA,NA,Vehicle Code Violation
2013-09-25,23:23:17,SNELL AV AND BLOSSOM HILL RD,37.2513862,-121.830919,white,vehicular,FALSE,FALSE,NA,FALSE,TRUE,Vehicle Code Violation
2013-09-26,02:16:48,GUADALUPE PY AND COLEMAN AV,37.3419742,-121.9002293,black,vehicular,FALSE,FALSE,NA,FALSE,TRUE,Vehicle Code Violation
2013-09-26,07:21:10,645 COLEMAN AV,NA,NA,black,NA,FALSE,FALSE,NA,NA,NA,NA
2013-09-26,07:21:10,645 COLEMAN AV,NA,NA,other,NA,FALSE,FALSE,NA,NA,NA,BOL/APB/Watch Bulletin
2013-09-26,07:53:22,OAKLAND RD AND MCKAY DR,37.385787,-121.8978453,other,NA,FALSE,TRUE,citation,NA,NA,NA
2013-09-26,07:53:22,OAKLAND RD AND MCKAY DR,37.385787,-121.8978453,other,NA,FALSE,TRUE,citation,TRUE,TRUE,NA
2013-09-26,07:53:22,OAKLAND RD AND MCKAY DR,37.385787,-121.8978453,other,NA,FALSE,TRUE,citation,NA,NA,NA
2013-09-26,07:53:22,OAKLAND RD AND MCKAY DR,37.385787,-121.8978453,NA,NA,FALSE,TRUE,citation,NA,FALSE,NA
2013-09-26,07:53:29,OAKLAND RD AND MCKAY DR,37.385787,-121.8978453,other,NA,FALSE,TRUE,citation,NA,NA,NA
2013-09-26,07:53:29,OAKLAND RD AND MCKAY DR,37.385787,-121.8978453,other,NA,FALSE,TRUE,citation,TRUE,TRUE,NA
2013-09-26,07:53:29,OAKLAND RD AND MCKAY DR,37.385787,-121.8978453,other,NA,FALSE,TRUE,citation,NA,NA,NA
2013-09-26,13:15:00,3 S 1ST ST,37.335955,-121.8907661,white,pedestrian,FALSE,TRUE,citation,FALSE,TRUE,Vehicle Code Violation
2013-09-26,18:21:11,AZUCAR AV AND ROEDER RD,37.2615693,-121.8099762,hispanic,vehicular,FALSE,FALSE,NA,NA,FALSE,Vehicle Code Violation
2013-09-26,18:34:04,BRANHAM LANE EAST AND BATTLE DANCE DR,37.2667667,-121.8073335,hispanic,vehicular,FALSE,FALSE,NA,FALSE,TRUE,Vehicle Code Violation
2013-09-26,19:05:24,TULLY RD AND MCLAUGHLIN AV,37.3151038,-121.8364555,asian/pacific islander,vehicular,FALSE,FALSE,NA,NA,FALSE,Vehicle Code Violation
2013-09-26,19:22:06,N 1ST ST AND E BROKAW RD,37.3733655,-121.9182131,hispanic,NA,TRUE,FALSE,arrest,NA,FALSE,Vehicle Code Violation
2013-09-26,19:40:51,ROEDER RD AND WHIRLAWAY DR,37.2637177,-121.8099661,hispanic,vehicular,FALSE,FALSE,NA,NA,FALSE,Vehicle Code Violation
2013-09-26,20:03:53,WILLOW ST AND LOCUST ST,37.3178601,-121.88408,hispanic,vehicular,FALSE,FALSE,NA,FALSE,TRUE,Vehicle Code Violation
2013-09-26,20:26:20,1705 N 1ST ST,37.3654382,-121.9130872,white,pedestrian,TRUE,FALSE,arrest,FALSE,TRUE,Vehicle Code Violation
2013-09-26,20:44:05,1865 S KING RD,37.3299326,-121.833776,hispanic,pedestrian,TRUE,FALSE,arrest,TRUE,TRUE,Vehicle Code Violation
2013-09-26,20:53:17,FRUITDALE AV AND MERIDIAN AV,37.3108477,-121.9139902,asian/pacific islander,vehicular,FALSE,FALSE,NA,FALSE,TRUE,Vehicle Code Violation
2013-09-26,21:06:54,SENTER RD AND SAN GREGORIO WY,NA,NA,NA,vehicular,FALSE,TRUE,citation,NA,FALSE,NA
2013-09-26,22:21:41,N 33RD ST AND ALUM ROCK AV,37.3511907,-121.8590964,hispanic,pedestrian,FALSE,FALSE,NA,NA,FALSE,Vehicle Code Violation
2013-09-27,01:33:21,MONTEREY RD AND STAUFFER BL,37.3084368,-121.8658788,black,vehicular,FALSE,TRUE,citation,FALSE,TRUE,Vehicle Code Violation
2013-09-27,02:12:17,W CAPITOL EX AND SNELL AV,37.2768493,-121.8419289,black,vehicular,FALSE,TRUE,citation,FALSE,TRUE,Vehicle Code Violation
2013-09-27,02:38:32,2097 TAMPA WY,NA,NA,hispanic,NA,TRUE,FALSE,arrest,TRUE,TRUE,BOL/APB/Watch Bulletin
2013-09-27,02:38:32,2097 TAMPA WY,NA,NA,hispanic,NA,TRUE,FALSE,arrest,FALSE,TRUE,BOL/APB/Watch Bulletin
2013-09-27,09:34:48,KEYES ST AND S 11TH ST,37.3247957,-121.8677754,hispanic,pedestrian,FALSE,FALSE,NA,NA,FALSE,BOL/APB/Watch Bulletin
2013-09-27,09:38:11,PIEDMONT RD AND BERRYESSA RD,37.3965219,-121.8453804,NA,NA,FALSE,FALSE,NA,NA,FALSE,NA
2013-09-27,10:35:01,ORLANDO DR AND CUNNINGHAM AV,37.3288316,-121.8309423,NA,NA,TRUE,FALSE,arrest,NA,FALSE,NA
2013-09-27,10:36:04,EDENVIEW DR AND MONTEREY RD,37.262181,-121.813518,NA,NA,TRUE,FALSE,arrest,NA,FALSE,NA
2013-09-27,11:12:02,SNELL AV AND SKYWAY DR,37.2689623,-121.8337982,black,vehicular,FALSE,FALSE,NA,FALSE,TRUE,Vehicle Code Violation
2013-09-27,16:04:31,SENTER RD AND MONTEREY RD,37.2778619,-121.8352363,hispanic,pedestrian,FALSE,FALSE,NA,FALSE,TRUE,Vehicle Code Violation
2013-09-27,17:31:11,GLENEEDEN WY AND EDEN AV,37.30632,-121.9545363,white,vehicular,FALSE,FALSE,NA,FALSE,TRUE,Vehicle Code Violation
2013-09-27,17:54:56,COMANCHE DR AND MOHICAN DR,37.2430707,-121.8352339,hispanic,vehicular,FALSE,FALSE,NA,NA,FALSE,Vehicle Code Violation
2013-09-27,18:02:12,CADILLAC DR AND EDEN AV,37.2968627,-121.9544442,hispanic,pedestrian,FALSE,FALSE,NA,FALSE,TRUE,Consensual
2013-09-27,18:13:05,1657 TULLY RD,37.3215705,-121.8273855,hispanic,pedestrian,FALSE,TRUE,citation,FALSE,TRUE,Muni Code Violation
2013-09-27,18:23:33,ROEDER RD AND MONTEREY RD,37.2602242,-121.8102572,hispanic,vehicular,FALSE,FALSE,NA,NA,FALSE,Vehicle Code Violation
2013-09-27,18:59:04,EZIE ST AND EL CAJON DR,37.2835013,-121.8316092,white,vehicular,FALSE,TRUE,citation,FALSE,TRUE,Vehicle Code Violation
2013-09-27,20:09:25,S 5TH ST AND E WILLIAM ST,37.3306009,-121.8806839,black,pedestrian,FALSE,FALSE,NA,FALSE,TRUE,Vehicle Code Violation
2013-09-27,20:28:03,N 12TH ST AND JACKSON ST,37.3524231,-121.8870692,hispanic,pedestrian,FALSE,FALSE,NA,FALSE,TRUE,Vehicle Code Violation
2013-09-27,20:38:38,S 6TH ST AND E WILLIAM ST,37.3311082,-121.8795724,hispanic,pedestrian,FALSE,FALSE,NA,FALSE,TRUE,Consensual
2013-09-27,20:45:03,N 2ND ST AND E ST JOHN ST,37.3381749,-121.8906047,black,NA,TRUE,FALSE,arrest,FALSE,TRUE,Vehicle Code Violation
2013-09-27,20:53:11,E SANTA CLARA ST AND N 6TH ST,37.3387078,-121.8852616,hispanic,NA,TRUE,FALSE,arrest,FALSE,TRUE,Vehicle Code Violation
2013-09-27,21:53:59,610 COLEMAN AV,37.3413561,-121.9084198,white,vehicular,TRUE,FALSE,arrest,TRUE,TRUE,Vehicle Code Violation
2013-09-27,21:54:50,N MARKET ST AND W SANTA CLARA ST,37.3354701,-121.8920706,white,pedestrian,FALSE,FALSE,NA,NA,FALSE,BOL/APB/Watch Bulletin
2013-09-27,22:00:32,E SANTA CLARA ST AND S 19TH ST,37.3447492,-121.8725392,hispanic,pedestrian,FALSE,FALSE,NA,FALSE,TRUE,Muni Code Violation
2013-09-27,23:05:27,515 MCLAUGHLIN AV,37.3406551,-121.8621494,hispanic,NA,TRUE,FALSE,arrest,FALSE,TRUE,Vehicle Code Violation
2013-09-27,23:10:50,S 6TH ST AND E REED ST,37.329627,-121.8784918,hispanic,vehicular,FALSE,TRUE,citation,NA,FALSE,Vehicle Code Violation
2013-09-27,23:40:02,TULLY RD AND ALTO CT,37.337234,-121.7926233,other,vehicular,FALSE,FALSE,NA,FALSE,TRUE,Vehicle Code Violation
2013-09-28,00:27:12,N 1ST ST AND COMPONENT DR,37.3828707,-121.9252553,other,vehicular,FALSE,TRUE,citation,NA,FALSE,Vehicle Code Violation
2013-09-28,00:35:34,N SAN PEDRO ST AND W ST JOHN ST,37.3370001,-121.8942904,hispanic,vehicular,TRUE,FALSE,arrest,TRUE,TRUE,Vehicle Code Violation
2013-09-28,01:16:41,N 3RD ST AND E ST JOHN ST,37.3386574,-121.8895975,black,vehicular,FALSE,TRUE,citation,FALSE,TRUE,Vehicle Code Violation
2013-09-28,01:21:55,E SAN FERNANDO ST AND S 3RD ST,37.3353154,-121.8871262,hispanic,pedestrian,FALSE,TRUE,citation,NA,FALSE,Vehicle Code Violation
2013-09-28,02:41:18,COTTAGE GROVE AV AND FORD AV,37.3139133,-121.8729832,other,pedestrian,TRUE,FALSE,arrest,TRUE,TRUE,BOL/APB/Watch Bulletin
2013-09-28,09:12:20,BLOSSOM HILL RD AND ALMADEN EX,37.2509041,-121.8754524,NA,vehicular,FALSE,FALSE,NA,NA,FALSE,NA
2013-09-28,09:47:01,1649 HERMOCILLA WY,NA,NA,hispanic,NA,TRUE,FALSE,arrest,FALSE,TRUE,Vehicle Code Violation
2013-09-28,10:46:39,BLOSSOM HILL RD AND CAHALAN AV,37.2505099,-121.8467583,hispanic,NA,TRUE,FALSE,arrest,FALSE,TRUE,Consensual
2013-09-28,11:28:44,E SAN ANTONIO ST AND S KING RD,37.3498934,-121.8525815,hispanic,vehicular,FALSE,TRUE,citation,FALSE,TRUE,Vehicle Code Violation
2013-09-28,15:44:49,N 11TH ST AND E HEDDING ST,37.3584122,-121.8928184,asian/pacific islander,pedestrian,FALSE,FALSE,NA,FALSE,TRUE,Vehicle Code Violation
2013-09-28,16:12:37,N 13TH ST AND JACKSON ST,37.3528615,-121.8861628,hispanic,pedestrian,FALSE,FALSE,NA,FALSE,TRUE,Vehicle Code Violation
2013-09-28,16:29:46,LINCOLN AV AND W SAN CARLOS ST,37.3235668,-121.9086652,hispanic,vehicular,FALSE,TRUE,citation,FALSE,TRUE,Vehicle Code Violation
2013-09-28,17:17:33,221 N 17TH ST,37.3471264,-121.8771407,hispanic,pedestrian,FALSE,FALSE,NA,FALSE,TRUE,Vehicle Code Violation
2013-09-28,18:43:35,STOKES ST AND SOUTHWEST EX,37.3012955,-121.9276862,white,pedestrian,FALSE,FALSE,NA,NA,NA,Muni Code Violation
2013-09-28,19:12:18,COPCO LN AND CHRIS DR,37.2470269,-121.8153427,hispanic,vehicular,FALSE,TRUE,citation,FALSE,TRUE,Vehicle Code Violation
2013-09-28,19:55:03,PIEDMONT RD AND NOBLE AV,37.392584,-121.8434549,white,vehicular,FALSE,TRUE,citation,NA,FALSE,Vehicle Code Violation
2013-09-28,20:35:09,E CAPITOL EX AND ABORN RD,37.3115327,-121.8081977,hispanic,pedestrian,TRUE,FALSE,arrest,TRUE,TRUE,Vehicle Code Violation
2013-09-28,22:17:26,COYOTE RD AND DELRIDGE DR,37.2683102,-121.7963802,hispanic,vehicular,FALSE,TRUE,citation,FALSE,TRUE,Vehicle Code Violation
2013-09-28,22:59:15,1040 LEIGH AV,37.3054881,-121.921133,white,vehicular,FALSE,FALSE,NA,FALSE,TRUE,Muni Code Violation
2013-09-29,00:23:28,THE ALAMEDA AND CLEAVES AV,37.3316512,-121.9074779,hispanic,NA,TRUE,FALSE,arrest,FALSE,TRUE,BOL/APB/Watch Bulletin
2013-09-29,00:23:53,NA,NA,NA,white,pedestrian,FALSE,TRUE,citation,TRUE,TRUE,Muni Code Violation
2013-09-29,02:01:54,TERRAINE ST AND W ST JOHN ST,37.3365023,-121.8953544,hispanic,pedestrian,FALSE,FALSE,NA,NA,FALSE,Muni Code Violation
2013-09-29,03:17:56,HELLYER AV AND SILVER CREEK VALLEY RD,37.2602904,-121.783804,other,vehicular,FALSE,FALSE,NA,FALSE,TRUE,Vehicle Code Violation
2013-09-29,11:48:53,NA,NA,NA,white,NA,FALSE,TRUE,citation,TRUE,TRUE,Muni Code Violation
2013-09-29,15:00:41,RUFF DR AND W HEDDING ST,37.3490641,-121.911219,hispanic,vehicular,FALSE,FALSE,NA,FALSE,TRUE,Vehicle Code Violation
2013-09-29,16:53:43,S WINCHESTER BL AND NEAL AV,37.3118563,-121.9501743,hispanic,pedestrian,FALSE,FALSE,NA,FALSE,TRUE,Consensual
2013-09-29,18:39:24,HAVANA DR AND TAMPA WY,37.3305592,-121.8352508,hispanic,vehicular,FALSE,FALSE,NA,FALSE,TRUE,Vehicle Code Violation
2013-09-29,20:13:47,1484 S WHITE RD,37.3499048,-121.8128356,hispanic,NA,TRUE,FALSE,arrest,TRUE,TRUE,Muni Code Violation
2013-09-29,20:36:56,TULLY RD AND SENTER RD,37.3080836,-121.8476515,white,NA,TRUE,FALSE,arrest,FALSE,TRUE,Vehicle Code Violation
2013-09-29,22:20:41,VISTAPARK DR AND W CAPITOL EX,37.2746662,-121.8497604,white,NA,TRUE,FALSE,arrest,TRUE,TRUE,Vehicle Code Violation
2013-09-29,22:49:15,WALLACE DR AND VEGAS DR,NA,NA,white,vehicular,TRUE,FALSE,arrest,TRUE,TRUE,Vehicle Code Violation
2013-09-29,22:53:41,S 1ST ST AND E ALMA AV,37.3163813,-121.8740209,black,NA,TRUE,FALSE,arrest,TRUE,TRUE,Consensual
2013-09-29,23:02:56,PALM BEACH WY AND PENSACOLA DR,37.3259724,-121.8318191,hispanic,vehicular,FALSE,FALSE,NA,NA,FALSE,Vehicle Code Violation
2013-09-29,23:02:56,PALM BEACH WY AND PENSACOLA DR,37.3259724,-121.8318191,hispanic,vehicular,FALSE,FALSE,NA,FALSE,TRUE,Vehicle Code Violation
2013-09-29,23:07:12,N 3RD ST AND E ST JAMES ST,37.340111,-121.8906594,white,vehicular,FALSE,TRUE,citation,NA,FALSE,Vehicle Code Violation
2013-09-30,02:16:42,S 10TH ST AND PHELAN AV,37.31568,-121.8624762,white,pedestrian,TRUE,FALSE,arrest,TRUE,TRUE,Vehicle Code Violation
2013-09-30,04:43:04,OCALA AV AND BERONA WY,37.3387913,-121.8232923,hispanic,vehicular,TRUE,FALSE,arrest,TRUE,TRUE,Vehicle Code Violation
2013-09-30,06:52:21,N 5TH ST AND JACKSON ST,37.3489866,-121.8943477,hispanic,pedestrian,FALSE,TRUE,citation,FALSE,TRUE,BOL/APB/Watch Bulletin
2013-09-30,08:54:17,2158 HURAN DR,NA,NA,NA,NA,TRUE,FALSE,arrest,NA,FALSE,NA
2013-09-30,09:17:56,DELAND AV AND KINGMAN AV,37.313043,-121.9160282,NA,pedestrian,FALSE,FALSE,NA,NA,FALSE,NA
2013-09-30,09:22:25,REMILLARD CT AND STORY RD,37.3278204,-121.8607615,NA,pedestrian,FALSE,FALSE,NA,NA,FALSE,NA
2013-09-30,14:58:03,1387 AIRPORT BL,37.3576164,-121.9167852,white,pedestrian,FALSE,FALSE,NA,NA,FALSE,Consensual
2013-09-30,15:22:25,MONTEREY RD AND SAN JOSE AV,37.312637,-121.8700622,hispanic,vehicular,FALSE,FALSE,NA,NA,FALSE,Vehicle Code Violation
2013-09-30,17:18:56,MCLAUGHLIN AV AND MIDPINE AV,37.3170392,-121.8383348,hispanic,vehicular,FALSE,FALSE,NA,NA,FALSE,Vehicle Code Violation
2013-09-30,17:48:11,AUDUBON DR AND PEARSON CT,37.3275389,-121.8473358,hispanic,vehicular,FALSE,TRUE,citation,TRUE,TRUE,Vehicle Code Violation
2013-09-30,21:56:52,SUMMERBROOK LN AND HILLVIEW AV,37.2480061,-121.8620417,hispanic,pedestrian,FALSE,FALSE,NA,FALSE,TRUE,BOL/APB/Watch Bulletin
2013-09-30,22:13:17,TULLY RD AND FLINT AV,37.3374442,-121.791669,hispanic,vehicular,FALSE,TRUE,citation,NA,FALSE,Vehicle Code Violation
2013-10-01,08:40:26,E TAYLOR ST AND N 2ND ST,37.3496123,-121.899122,other,NA,FALSE,FALSE,NA,NA,NA,NA
2013-10-01,08:40:26,E TAYLOR ST AND N 2ND ST,37.3496123,-121.899122,other,NA,FALSE,FALSE,NA,NA,NA,NA
2013-10-01,08:40:26,E TAYLOR ST AND N 2ND ST,37.3496123,-121.899122,other,NA,FALSE,FALSE,NA,NA,NA,NA
2013-10-01,08:40:26,E TAYLOR ST AND N 2ND ST,37.3496123,-121.899122,other,NA,FALSE,FALSE,NA,NA,NA,NA
2013-10-01,10:03:59,JOSE FIGUERES AV AND ALUM ROCK AV,37.356878,-121.8467781,hispanic,NA,FALSE,TRUE,citation,FALSE,TRUE,Vehicle Code Violation
2013-10-01,10:43:02,ALUM ROCK AV AND N JACKSON AV,37.3585942,-121.8435772,other,NA,FALSE,TRUE,citation,NA,NA,NA
2013-10-01,11:28:30,1795 BERMUDA WY,NA,NA,NA,NA,TRUE,FALSE,arrest,NA,FALSE,NA
2013-10-01,11:34:11,2245 LANAI AV,37.322434,-121.832935,hispanic,vehicular,FALSE,FALSE,NA,NA,FALSE,Vehicle Code Violation
2013-10-01,11:34:11,2245 LANAI AV,37.322434,-121.832935,other,vehicular,FALSE,FALSE,NA,NA,FALSE,Vehicle Code Violation
2013-10-01,11:34:11,2245 LANAI AV,37.322434,-121.832935,NA,vehicular,FALSE,FALSE,NA,NA,FALSE,NA
2013-10-01,13:54:31,WARREN AV AND WILLOW ST,37.3116792,-121.8947553,hispanic,NA,FALSE,TRUE,citation,FALSE,TRUE,Muni Code Violation
2013-10-01,14:02:55,NA,NA,NA,asian/pacific islander,vehicular,FALSE,FALSE,NA,NA,FALSE,Vehicle Code Violation
2013-10-01,18:50:18,SKYWAY DR AND MONTEREY RD,37.2724196,-121.829101,hispanic,vehicular,FALSE,FALSE,NA,FALSE,TRUE,Vehicle Code Violation
2013-10-01,18:53:57,MONTEREY RD AND SAN JOSE AV,37.312637,-121.8700622,hispanic,pedestrian,FALSE,FALSE,NA,NA,FALSE,BOL/APB/Watch Bulletin
2013-10-01,19:01:09,MONTEREY RD AND PHELAN AV,37.3112879,-121.8689544,hispanic,pedestrian,TRUE,FALSE,arrest,TRUE,TRUE,Vehicle Code Violation
2013-10-01,19:06:00,THE ALAMEDA AND W JULIAN ST,37.3321257,-121.9127659,black,pedestrian,FALSE,FALSE,NA,FALSE,TRUE,Vehicle Code Violation
2013-10-01,20:15:52,5300 TERNER WY,37.2577751,-121.8622137,hispanic,pedestrian,TRUE,FALSE,arrest,TRUE,TRUE,Muni Code Violation
2013-10-01,20:38:14,S 1ST ST AND GOODYEAR ST,37.3200755,-121.8776711,hispanic,pedestrian,FALSE,FALSE,NA,FALSE,TRUE,Vehicle Code Violation
2013-10-01,21:10:29,TULLY RD AND SENTER RD,37.3080836,-121.8476515,asian/pacific islander,vehicular,FALSE,TRUE,citation,FALSE,TRUE,Vehicle Code Violation
2013-10-01,22:29:38,COLEMAN RD AND MERIDIAN AV,37.2379374,-121.886742,white,vehicular,FALSE,FALSE,NA,NA,FALSE,Vehicle Code Violation
2013-10-01,22:48:51,MT VISTA DR AND MT PALOMAR DR,37.3517543,-121.8128704,hispanic,pedestrian,FALSE,FALSE,NA,FALSE,TRUE,Vehicle Code Violation
2013-10-01,22:54:39,CUNNINGHAM AV AND NASSAU DR,37.330634,-121.8282901,hispanic,pedestrian,FALSE,FALSE,NA,NA,FALSE,Vehicle Code Violation
2013-10-01,22:54:39,CUNNINGHAM AV AND NASSAU DR,37.330634,-121.8282901,hispanic,pedestrian,FALSE,FALSE,NA,FALSE,TRUE,Vehicle Code Violation
2013-10-01,23:13:20,MONTEREY RD AND BELLEVUE AV,37.3132644,-121.87091,hispanic,NA,FALSE,TRUE,citation,FALSE,TRUE,Vehicle Code Violation
2013-10-02,01:24:10,S 7TH ST AND E ALMA AV,37.318413,-121.8687107,hispanic,pedestrian,TRUE,FALSE,arrest,FALSE,TRUE,Vehicle Code Violation
2013-10-02,01:33:20,MCLAUGHLIN AV AND ALGIERS AV,37.3276233,-121.8486969,white,pedestrian,TRUE,FALSE,arrest,TRUE,TRUE,Vehicle Code Violation
2013-10-02,02:55:03,S 1ST ST AND MARTHA ST,37.3227126,-121.8803153,hispanic,pedestrian,FALSE,FALSE,NA,FALSE,TRUE,Consensual
2013-10-02,04:11:45,NA,NA,NA,hispanic,pedestrian,FALSE,FALSE,NA,FALSE,TRUE,Muni Code Violation
2013-10-02,07:21:05,NA,NA,NA,white,vehicular,FALSE,FALSE,NA,NA,FALSE,Vehicle Code Violation
2013-10-02,10:13:15,STORY RD AND ADRIAN WY,37.3460817,-121.8341258,hispanic,vehicular,FALSE,TRUE,citation,FALSE,TRUE,Vehicle Code Violation
2013-10-02,11:14:52,N JACKSON AV AND RINEHART DR,37.3669745,-121.8517507,NA,NA,TRUE,FALSE,arrest,NA,FALSE,NA
2013-10-02,11:40:31,VIRGINIA AV AND S KING RD,37.3449234,-121.8478913,NA,NA,TRUE,FALSE,arrest,NA,FALSE,NA
2013-10-02,13:24:59,1142 HOPKINS DR,NA,NA,NA,NA,FALSE,FALSE,NA,NA,FALSE,NA
2013-10-02,14:17:34,NA,NA,NA,white,pedestrian,FALSE,FALSE,NA,NA,FALSE,Vehicle Code Violation
2013-10-02,17:30:19,7183 INDIAN VALLEY CT,37.224291,-121.774383,NA,pedestrian,FALSE,FALSE,NA,NA,FALSE,NA
2013-10-02,17:47:16,NA,NA,NA,NA,NA,FALSE,FALSE,NA,NA,FALSE,NA
2013-10-02,17:58:11,2500 CUNNINGHAM AV,37.3359851,-121.8197694,NA,NA,FALSE,FALSE,NA,NA,FALSE,NA
2013-10-02,18:40:15,1600 HOPKINS DR,37.3378638,-121.8310846,NA,NA,FALSE,FALSE,NA,NA,FALSE,NA
2013-10-02,18:43:05,1501 ALMADEN EX,37.3099109,-121.8792098,hispanic,vehicular,FALSE,TRUE,citation,FALSE,TRUE,Vehicle Code Violation
2013-10-02,18:43:52,W HUMBOLDT ST AND LOCUST ST,37.3149758,-121.8820082,hispanic,NA,TRUE,FALSE,arrest,FALSE,TRUE,Vehicle Code Violation
2013-10-02,19:01:37,2718 KOLLMAR DR,37.350282,-121.825572,NA,NA,FALSE,FALSE,NA,NA,FALSE,NA
2013-10-02,19:32:36,MONTEREY RD AND E ALMA AV,37.3163813,-121.8740209,black,pedestrian,FALSE,TRUE,citation,FALSE,TRUE,Vehicle Code Violation
2013-10-02,19:41:38,1985 SANTIAGO AV,NA,NA,NA,NA,FALSE,FALSE,NA,NA,FALSE,NA
2013-10-02,20:20:55,KEYES ST AND S 11TH ST,37.3247957,-121.8677754,hispanic,NA,TRUE,FALSE,arrest,FALSE,TRUE,Vehicle Code Violation
2013-10-02,22:31:05,395 MENKER AV,37.3216997,-121.9219108,hispanic,vehicular,FALSE,TRUE,citation,FALSE,TRUE,Vehicle Code Violation
2013-10-02,22:36:17,NA,NA,NA,asian/pacific islander,vehicular,FALSE,FALSE,NA,NA,FALSE,Vehicle Code Violation
